STATIONSKENNUNG,STATIONSNAME,STATIONS_ID,MaxvonGERAETETYP_NAME,MinvonVON_DATUM,GEOGR_BREITE,GEOGR_LAENGE,STATIONSHOEHE,Niederschlag 1 Min,Schnee manuell,Wind 10 Min,Temperatur und Feuchte 2 m 10 Min,Sonne 10 Min,Erdbodentemperaturen Standard 10 Min,HEADING_BUFR1,HEADING_BUFR2,HEADING_BUFR3,HEADING_BUFR4,HEADING_BUFR5,HEADING_BUFR6,HEADING_BUFR7
A002,Helgoland-Düne,2100,MODES III W,08-Nov-18,54.185992,7.911932,4.1,,,1,,,,ISMD72 AMDW,ISID72 AMDW,ISND72 AMDW,ISXD72 AMDW,ISAD72 AMDW,ISHD72 AMDW,ISGD72 AMDW
A051,Weesby,3217,MODES III N,01-Aug-06,54.837286,9.148066,22.0,2,2,,,,,ISMD83 AMDN,ISID83 AMDN,ISND83 AMDN,ISXD83 AMDN,ISAD83 AMDN,ISHD83 AMDN,ISGD83 AMDN
A112,Wrixum/Föhr,5732,MODES III N,01-Jul-05,54.692781,8.527128,8.0,2,2,,,,,ISMD83 AMDN,ISID83 AMDN,ISND83 AMDN,ISXD83 AMDN,ISAD83 AMDN,ISHD83 AMDN,ISGD83 AMDN
A138,Bordelum,791,AMDA III / N,01-Jan-06,54.632756,8.936989,8.0,1,1,,,,,ISMD83 AMDN,ISID83 AMDN,ISND83 AMDN,ISXD83 AMDN,ISAD83 AMDN,ISHD83 AMDN,ISGD83 AMDN
A159,Eggebek,1130,MODES III N,01-Jul-09,54.628230,9.364924,17.0,3,3,,,,,ISMD83 AMDN,ISID83 AMDN,ISND83 AMDN,ISXD83 AMDN,ISAD83 AMDN,ISHD83 AMDN,ISGD83 AMDN
A160,Flensburg (Schäferhaus),1379,AMDA III / W,01-Jun-06,54.773652,9.375236,41.0,,,3,,,,ISMD72 AMDW,ISID72 AMDW,ISND72 AMDW,ISXD72 AMDW,ISAD72 AMDW,ISHD72 AMDW,ISGD72 AMDW
A173,Satrup,4405,AMDA III / N,01-Mar-06,54.685407,9.626100,35.0,4,4,,,,,ISMD83 AMDN,ISID83 AMDN,ISND83 AMDN,ISXD83 AMDN,ISAD83 AMDN,ISHD83 AMDN,ISGD83 AMDN
A191,Wagersrott,4896,AMDA III / S,01-Jul-05,54.665383,9.805022,40.0,2,2,,2,,2,ISMD33 AMDS,ISID33 AMDS,ISND33 AMDS,ISXD33 AMDS,ISAD33 AMDS,ISHD33 AMDS,ISGD33 AMDS
A201,Hallig Hooge,1963,MODES III W,01-Aug-06,54.574167,8.513315,4.0,,,5,,,,ISMD72 AMDW,ISID72 AMDW,ISND72 AMDW,ISXD72 AMDW,ISAD72 AMDW,ISHD72 AMDW,ISGD72 AMDW
A216,Strucklahnungshörn,4919,MODES III W,01-Aug-06,54.496485,8.806926,7.0,,,3,,,,ISMD72 AMDW,ISID72 AMDW,ISND72 AMDW,ISXD72 AMDW,ISAD72 AMDW,ISHD72 AMDW,ISGD72 AMDW
A226,Hattstedt,7298,MODES III S,01-Jul-05,54.526755,9.042461,5.0,2,2,,2,2,,ISMD33 AMDS,ISID33 AMDS,ISND33 AMDS,ISXD33 AMDS,ISAD33 AMDS,ISHD33 AMDS,ISGD33 AMDS
A345,Groß Wittensee,1813,AMDA III / N,01-Jan-07,54.403194,9.765426,15.0,1,1,,,,,ISMD83 AMDN,ISID83 AMDN,ISND83 AMDN,ISXD83 AMDN,ISAD83 AMDN,ISHD83 AMDN,ISGD83 AMDN
A351,Erfde,1266,MODES III S,01-Jun-04,54.299212,9.316185,18.0,2,2,,2,,2,ISMD33 AMDS,ISID33 AMDS,ISND33 AMDS,ISXD33 AMDS,ISAD33 AMDS,ISHD33 AMDS,ISGD33 AMDS
A397,Großenbrode,1827,MODES III N,01-Jan-07,54.372582,11.082818,2.5,2,2,,,,,ISMD83 AMDN,ISID83 AMDN,ISND83 AMDN,ISXD83 AMDN,ISAD83 AMDN,ISHD83 AMDN,ISGD83 AMDN
A411,Krempel,2734,AMDA III / N,01-Jan-06,54.323706,9.024660,1.5,4,4,,,,,ISMD83 AMDN,ISID83 AMDN,ISND83 AMDN,ISXD83 AMDN,ISAD83 AMDN,ISHD83 AMDN,ISGD83 AMDN
A443,Ostenfeld (Rendsburg),6105,MODES III S,01-May-04,54.319385,9.805120,14.0,5,5,,5,5,5,ISMD33 AMDS,ISID33 AMDS,ISND33 AMDS,ISXD33 AMDS,ISAD33 AMDS,ISHD33 AMDS,ISGD33 AMDS
A473,Köhn,4666,MODES III N,01-Jun-05,54.344412,10.458082,40.0,2,2,,,,,ISMD83 AMDN,ISID83 AMDN,ISND83 AMDN,ISXD83 AMDN,ISAD83 AMDN,ISHD83 AMDN,ISGD83 AMDN
A480,Putlos,5877,AMDA III / W,09-Jul-09,54.315980,10.800223,5.0,,,1,,,,ISMD72 AMDW,ISID72 AMDW,ISND72 AMDW,ISXD72 AMDW,ISAD72 AMDW,ISHD72 AMDW,ISGD72 AMDW
A481,Hohwacht,2306,MODES III S,01-Aug-05,54.319391,10.673193,8.0,3,3,,3,,3,ISMD33 AMDS,ISID33 AMDS,ISND33 AMDS,ISXD33 AMDS,ISAD33 AMDS,ISHD33 AMDS,ISGD33 AMDS
A505,Büsum,788,AMDA III / W,26-Oct-07,54.119305,8.858369,3.0,,,3,,,,ISMD72 AMDW,ISID72 AMDW,ISND72 AMDW,ISXD72 AMDW,ISAD72 AMDW,ISHD72 AMDW,ISGD72 AMDW
A536,Haale,5057,MODES III N,01-Aug-05,54.169524,9.555852,26.0,2,2,,,,,ISMD83 AMDN,ISID83 AMDN,ISND83 AMDN,ISXD83 AMDN,ISAD83 AMDN,ISHD83 AMDN,ISGD83 AMDN
A653,Padenstedt (Pony-Park),7427,AMDA III / S,01-Sep-07,54.018844,9.925507,16.5,1,1,,1,,,ISMD33 AMDS,ISID33 AMDS,ISND33 AMDS,ISXD33 AMDS,ISAD33 AMDS,ISHD33 AMDS,ISGD33 AMDS
A699,Travemünde,5078,AMDA III / W,23-Aug-07,53.961947,10.889158,2.3,,,1,,,,ISMD72 AMDW,ISID72 AMDW,ISND72 AMDW,ISXD72 AMDW,ISAD72 AMDW,ISHD72 AMDW,ISGD72 AMDW
A752,Weddelbrook,13687,AMDA III / N,01-Nov-07,53.900473,9.830793,18.0,3,3,,,,,ISMD83 AMDN,ISID83 AMDN,ISND83 AMDN,ISXD83 AMDN,ISAD83 AMDN,ISHD83 AMDN,ISGD83 AMDN
A762,Wittenborn,5280,MODES III S,01-Mar-07,53.922412,10.226738,35.0,3,3,,3,,3,ISMD33 AMDS,ISID33 AMDS,ISND33 AMDS,ISXD33 AMDS,ISAD33 AMDS,ISHD33 AMDS,ISGD33 AMDS
A791,"Schwartau,Bad -Groß Parin",4602,MODES III N,01-Dec-08,53.938481,10.698267,26.0,2,2,,,,,ISMD83 AMDN,ISID83 AMDN,ISND83 AMDN,ISXD83 AMDN,ISAD83 AMDN,ISHD83 AMDN,ISGD83 AMDN
A940,Sprenge,5058,MODES III N,01-Dec-05,53.689270,10.365697,55.0,4,4,,,,,ISMD83 AMDN,ISID83 AMDN,ISND83 AMDN,ISXD83 AMDN,ISAD83 AMDN,ISHD83 AMDN,ISGD83 AMDN
A981,Grambek,1736,MODES III S,01-Jul-02,53.573115,10.679686,27.0,3,3,,3,,3,ISMD33 AMDS,ISID33 AMDS,ISND33 AMDS,ISXD33 AMDS,ISAD33 AMDS,ISHD33 AMDS,ISGD33 AMDS
B006,Hiddensee-Vitte,2201,MODES III S,01-Aug-05,54.574957,13.104393,1.0,5,5,,5,,,ISMD32 AMDS,ISID32 AMDS,ISND32 AMDS,ISXD32 AMDS,ISAD32 AMDS,ISHD32 AMDS,ISGD32 AMDS
B040,Darßer Ort (SWN),6097,AMDA III / W,25-Sep-07,54.473768,12.501388,4.0,,,1,,,,ISMD71 AMDW,ISID71 AMDW,ISND71 AMDW,ISXD71 AMDW,ISAD71 AMDW,ISHD71 AMDW,ISGD71 AMDW
B085,Sagard,4352,MODES III N,01-Sep-07,54.515958,13.531288,5.0,3,3,,,,,ISMD82 AMDN,ISID82 AMDN,ISND82 AMDN,ISXD82 AMDN,ISAD82 AMDN,ISHD82 AMDN,ISGD82 AMDN
B158,Steinhagen-Negast,6199,MODES III S,01-Oct-04,54.248388,13.041849,16.0,4,4,,4,,4,ISMD32 AMDS,ISID32 AMDS,ISND32 AMDS,ISXD32 AMDS,ISAD32 AMDS,ISHD32 AMDS,ISGD32 AMDS
B203,Bastorf-Kägsdorf (SWN),6101,AMDA III / W,25-Sep-07,54.132339,11.671890,51.0,,,1,,,,ISMD71 AMDW,ISID71 AMDW,ISND71 AMDW,ISXD71 AMDW,ISAD71 AMDW,ISHD71 AMDW,ISGD71 AMDW
B258,Tribsees,5097,MODES III S,01-Jan-05,54.066058,12.767516,10.0,4,4,,4,4,4,ISMD32 AMDS,ISID32 AMDS,ISND32 AMDS,ISXD32 AMDS,ISAD32 AMDS,ISHD32 AMDS,ISGD32 AMDS
B308,Kirchdorf/Poel,2578,MODES III S,01-Jul-04,53.999513,11.434142,12.0,2,2,,2,,,ISMD32 AMDS,ISID32 AMDS,ISND32 AMDS,ISXD32 AMDS,ISAD32 AMDS,ISHD32 AMDS,ISGD32 AMDS
B320,Gersdorf,2749,MODES III N,01-Aug-04,54.080548,11.742490,52.0,3,3,,,,,ISMD82 AMDN,ISID82 AMDN,ISND82 AMDN,ISXD82 AMDN,ISAD82 AMDN,ISHD82 AMDN,ISGD82 AMDN
B334,Groß Lüsewitz,1803,MODES III S,01-Sep-04,54.071372,12.323780,34.0,3,3,3,3,,,ISMD39 AMDS,ISID39 AMDS,ISND39 AMDS,ISXD39 AMDS,ISAD39 AMDS,ISHD39 AMDS,ISGD39 AMDS
B365,Süderholz-Neuendorf,3965,MODES III N,01-Dec-07,54.103401,13.153310,5.0,2,2,,,,,ISMD82 AMDN,ISID82 AMDN,ISND82 AMDN,ISXD82 AMDN,ISAD82 AMDN,ISHD82 AMDN,ISGD82 AMDN
B382,Karlshagen,6310,MODES III S,01-Aug-04,54.104896,13.823906,1.0,2,2,,2,2,,ISMD32 AMDS,ISID32 AMDS,ISND32 AMDS,ISXD32 AMDS,ISAD32 AMDS,ISHD32 AMDS,ISGD32 AMDS
B471,Schmarsow,15003,MODES III N,01-May-11,53.875349,13.210137,20.0,4,4,,,,,ISMD82 AMDN,ISID82 AMDN,ISND82 AMDN,ISXD82 AMDN,ISAD82 AMDN,ISHD82 AMDN,ISGD82 AMDN
B482,Groß Kiesow-Schlagtow,2518,AMDA III / N,01-Nov-05,54.011742,13.499925,34.0,2,2,,,,,ISMD82 AMDN,ISID82 AMDN,ISND82 AMDN,ISXD82 AMDN,ISAD82 AMDN,ISHD82 AMDN,ISGD82 AMDN
B488,Anklam,167,AMDA III / S,01-Sep-04,53.841190,13.684647,9.0,1,1,,1,1,1,ISMD32 AMDS,ISID32 AMDS,ISND32 AMDS,ISXD32 AMDS,ISAD32 AMDS,ISHD32 AMDS,ISGD32 AMDS
B508,Carlow,839,AMDA III / N,01-Jan-11,53.757539,10.928833,27.0,1,,,,,,ISMD82 AMDN,ISID82 AMDN,ISND82 AMDN,ISXD82 AMDN,ISAD82 AMDN,ISHD82 AMDN,ISGD82 AMDN
B511,Grevesmühlen,1769,AMDA III / N,01-Oct-04,53.831221,11.171260,25.0,1,1,,,,,ISMD82 AMDN,ISID82 AMDN,ISND82 AMDN,ISXD82 AMDN,ISAD82 AMDN,ISHD82 AMDN,ISGD82 AMDN
B525,Ventschow,2272,AMDA III / N,12-Nov-09,53.778422,11.559480,43.0,4,4,,,,,ISMD82 AMDN,ISID82 AMDN,ISND82 AMDN,ISXD82 AMDN,ISAD82 AMDN,ISHD82 AMDN,ISGD82 AMDN
B531,Baumgarten,312,AMDA III / N,01-Jun-07,53.814887,11.881812,52.0,3,3,,,,,ISMD82 AMDN,ISID82 AMDN,ISND82 AMDN,ISXD82 AMDN,ISAD82 AMDN,ISHD82 AMDN,ISGD82 AMDN
B544,Parum,1888,AMDA III / N,01-Feb-05,53.811926,12.114001,10.0,3,3,,,,,ISMD82 AMDN,ISID82 AMDN,ISND82 AMDN,ISXD82 AMDN,ISAD82 AMDN,ISHD82 AMDN,ISGD82 AMDN
B556,Teterow,5009,MODES III S,01-Jul-04,53.761044,12.557403,38.0,2,2,,2,2,2,ISMD32 AMDS,ISID32 AMDS,ISND32 AMDS,ISXD32 AMDS,ISAD32 AMDS,ISHD32 AMDS,ISGD32 AMDS
B565,Borrentin-Wolkwitz,1669,MODES III N,01-Nov-06,53.808033,12.960750,43.0,2,2,,,,,ISMD82 AMDN,ISID82 AMDN,ISND82 AMDN,ISXD82 AMDN,ISAD82 AMDN,ISHD82 AMDN,ISGD82 AMDN
B587,Rathebur,4080,AMDA III / N,01-Sep-05,53.740917,13.790639,10.0,1,1,,,,,ISMD82 AMDN,ISID82 AMDN,ISND82 AMDN,ISXD82 AMDN,ISAD82 AMDN,ISHD82 AMDN,ISGD82 AMDN
B629,Goldenbow,1495,AMDA III / N,01-Oct-04,53.538868,11.760670,52.0,2,,,,,,ISMD82 AMDN,ISID82 AMDN,ISND82 AMDN,ISXD82 AMDN,ISAD82 AMDN,ISHD82 AMDN,ISGD82 AMDN
B650,Sukow-Levitzow,15189,MODES III W,01-May-13,53.828116,12.593625,12.0,,,2,,,,ISMD71 AMDW,ISID71 AMDW,ISND71 AMDW,ISXD71 AMDW,ISAD71 AMDW,ISHD71 AMDW,ISGD71 AMDW
B670,Friedland,5854,MODES III N,01-Sep-05,53.655726,13.536919,22.0,4,4,,,,,ISMD82 AMDN,ISID82 AMDN,ISND82 AMDN,ISXD82 AMDN,ISAD82 AMDN,ISHD82 AMDN,ISGD82 AMDN
B687,Rothemühl,4282,AMDA III / N,01-Oct-04,53.595374,13.812065,23.0,3,3,,,,,ISMD82 AMDN,ISID82 AMDN,ISND82 AMDN,ISXD82 AMDN,ISAD82 AMDN,ISHD82 AMDN,ISGD82 AMDN
B710,Dodow,7078,AMDA III / N,01-Nov-04,53.503541,11.001354,34.0,1,1,,,,,ISMD82 AMDN,ISID82 AMDN,ISND82 AMDN,ISXD82 AMDN,ISAD82 AMDN,ISHD82 AMDN,ISGD82 AMDN
B728,Neustadt-Glewe-Friedrichsmoor,3564,MODES III N,01-Feb-05,53.457104,11.568696,35.0,3,3,,,,,ISMD82 AMDN,ISID82 AMDN,ISND82 AMDN,ISXD82 AMDN,ISAD82 AMDN,ISHD82 AMDN,ISGD82 AMDN
B747,Plau am See,3945,MODES III N,01-Mar-05,53.458476,12.241716,66.0,3,3,,,,,ISMD82 AMDN,ISID82 AMDN,ISND82 AMDN,ISXD82 AMDN,ISAD82 AMDN,ISHD82 AMDN,ISGD82 AMDN
B766,Groß Lukow,7077,AMDA III / N,01-Nov-04,53.525463,13.016071,54.0,2,2,,,,,ISMD82 AMDN,ISID82 AMDN,ISND82 AMDN,ISXD82 AMDN,ISAD82 AMDN,ISHD82 AMDN,ISGD82 AMDN
B818,Redefin,4101,AMDA III / N,01-Aug-04,53.346894,11.199183,16.0,1,1,,,,,ISMD82 AMDN,ISID82 AMDN,ISND82 AMDN,ISXD82 AMDN,ISAD82 AMDN,ISHD82 AMDN,ISGD82 AMDN
B853,Rechlin,6106,AMDA III / W,28-Nov-07,53.331116,12.714875,62.0,,,6,,,,ISMD71 AMDW,ISID71 AMDW,ISND71 AMDW,ISXD71 AMDW,ISAD71 AMDW,ISHD71 AMDW,ISGD71 AMDW
B898,Grambow-Schwennenz,6109,MODES III S,01-Sep-04,53.383690,14.372794,50.0,4,4,,4,4,4,ISMD32 AMDS,ISID32 AMDS,ISND32 AMDS,ISXD32 AMDS,ISAD32 AMDS,ISHD32 AMDS,ISGD32 AMDS
B923,Grabow (Kläranlage Fahlenkamp),1717,MODES III N,01-Sep-05,53.265138,11.504213,28.0,3,,,,,,ISMD82 AMDN,ISID82 AMDN,ISND82 AMDN,ISXD82 AMDN,ISAD82 AMDN,ISHD82 AMDN,ISGD82 AMDN
B926,Malk Göhren,3146,AMDA III / N,01-Nov-04,53.214097,11.368558,31.0,3,3,,,,,ISMD82 AMDN,ISID82 AMDN,ISND82 AMDN,ISXD82 AMDN,ISAD82 AMDN,ISHD82 AMDN,ISGD82 AMDN
B951,Krümmel,3297,AMDA III / N,01-Jul-05,53.268105,12.722084,64.0,3,3,,,,,ISMD82 AMDN,ISID82 AMDN,ISND82 AMDN,ISXD82 AMDN,ISAD82 AMDN,ISHD82 AMDN,ISGD82 AMDN
B995,Dewichow,3238,MODES III N,01-Jun-11,53.949655,13.974180,2.0,3,3,,,,,ISMD82 AMDN,ISID82 AMDN,ISND82 AMDN,ISXD82 AMDN,ISAD82 AMDN,ISHD82 AMDN,ISGD82 AMDN
C720,Hamburg-Neuwiedenthal,1981,MODES III S,01-Mar-05,53.477658,9.895686,3.0,2,2,,2,,2,ISMD33 AMDS,ISID33 AMDS,ISND33 AMDS,ISXD33 AMDS,ISAD33 AMDS,ISHD33 AMDS,ISGD33 AMDS
E006,Borkum-Süderstraße,619,AMDA III / W,01-Apr-06,53.578793,6.670348,11.6,,,3,,,,ISMD72 AMDW,ISID72 AMDW,ISND72 AMDW,ISXD72 AMDW,ISAD72 AMDW,ISHD72 AMDW,ISGD72 AMDW
E008,Borkum-Flugplatz,7373,AMDA III / S,01-Mar-06,53.598388,6.702358,3.0,1,1,,1,1,,ISMD33 AMDS,ISID33 AMDS,ISND33 AMDS,ISXD33 AMDS,ISAD33 AMDS,ISHD33 AMDS,ISGD33 AMDS
E025,Dornum,1030,AMDA III / N,01-Mar-05,53.645983,7.430158,1.0,1,1,,,,,ISMD83 AMDN,ISID83 AMDN,ISND83 AMDN,ISXD83 AMDN,ISAD83 AMDN,ISHD83 AMDN,ISGD83 AMDN
E031,Spiekeroog (SWN),6091,MODES III W,12-Nov-09,53.767413,7.672094,14.0,,,4,,,,ISMD72 AMDW,ISID72 AMDW,ISND72 AMDW,ISXD72 AMDW,ISAD72 AMDW,ISHD72 AMDW,ISGD72 AMDW
E043,Wangerland-Hooksiel,6157,AMDA III / S,01-Oct-07,53.641047,8.080849,8.0,1,1,,1,,,ISMD33 AMDS,ISID33 AMDS,ISND33 AMDS,ISXD33 AMDS,ISAD33 AMDS,ISHD33 AMDS,ISGD33 AMDS
E067,"Langen-Holßel, Kreis Cuxhaven",2844,MODES III N,01-Oct-07,53.695623,8.629108,13.0,3,3,,,,,ISMD83 AMDN,ISID83 AMDN,ISND83 AMDN,ISXD83 AMDN,ISAD83 AMDN,ISHD83 AMDN,ISGD83 AMDN
E078,"Steinau, Kr. Cuxhaven",4841,AMDA III / S,01-Jul-04,53.694589,8.873515,1.0,2,2,,2,,,ISMD33 AMDS,ISID33 AMDS,ISND33 AMDS,ISXD33 AMDS,ISAD33 AMDS,ISHD33 AMDS,ISGD33 AMDS
E082,Freiburg/Elbe,1451,AMDA III / S,01-Jun-04,53.827696,9.249276,2.0,2,2,,2,,2,ISMD33 AMDS,ISID33 AMDS,ISND33 AMDS,ISXD33 AMDS,ISAD33 AMDS,ISHD33 AMDS,ISGD33 AMDS
E087,Lamstedt,2822,AMDA III / N,01-Oct-04,53.636895,9.097852,25.0,2,2,,,,,ISMD83 AMDN,ISID83 AMDN,ISND83 AMDN,ISXD83 AMDN,ISAD83 AMDN,ISHD83 AMDN,ISGD83 AMDN
E091,Drochtersen,1056,MODES III N,01-Dec-05,53.711752,9.379085,1.0,2,2,,,,,ISMD83 AMDN,ISID83 AMDN,ISND83 AMDN,ISXD83 AMDN,ISAD83 AMDN,ISHD83 AMDN,ISGD83 AMDN
E095,Ruthenstrom,6108,MODES III W,24-Feb-06,53.719650,9.419156,7.0,,,2,,,,ISMD72 AMDW,ISID72 AMDW,ISND72 AMDW,ISXD72 AMDW,ISAD72 AMDW,ISHD72 AMDW,ISGD72 AMDW
E099,Mittelnkirchen-Hohenfelde,4857,MODES III S,01-Sep-04,53.553446,9.609701,1.0,3,3,,3,,,ISMD33 AMDS,ISID33 AMDS,ISND33 AMDS,ISXD33 AMDS,ISAD33 AMDS,ISHD33 AMDS,ISGD33 AMDS
E103,Norden-Leybuchtpolder,2763,AMDA III / N,01-Dec-05,53.503894,7.121735,1.0,1,1,,,,,ISMD83 AMDN,ISID83 AMDN,ISND83 AMDN,ISXD83 AMDN,ISAD83 AMDN,ISHD83 AMDN,ISGD83 AMDN
E145,Butjadingen-Inte,4803,MODES III N,01-Sep-09,53.492638,8.376849,1.0,2,2,,,,,ISMD83 AMDN,ISID83 AMDN,ISND83 AMDN,ISXD83 AMDN,ISAD83 AMDN,ISHD83 AMDN,ISGD83 AMDN
E158,Beverstedt,4920,MODES III N,18-Aug-09,53.425244,8.804026,3.0,2,2,,,,,ISMD83 AMDN,ISID83 AMDN,ISND83 AMDN,ISXD83 AMDN,ISAD83 AMDN,ISHD83 AMDN,ISGD83 AMDN
E188,Jork-Moorende,2465,MODES III N,01-Jul-02,53.508338,9.737635,1.0,2,2,,,,,ISMD83 AMDN,ISID83 AMDN,ISND83 AMDN,ISXD83 AMDN,ISAD83 AMDN,ISHD83 AMDN,ISGD83 AMDN
E200,Bockhorn-Grabstede,561,MODES III N,01-Oct-05,53.367048,7.967927,11.0,3,3,,,,,ISMD83 AMDN,ISID83 AMDN,ISND83 AMDN,ISXD83 AMDN,ISAD83 AMDN,ISHD83 AMDN,ISGD83 AMDN
E207,Dollart-Kanalpolder,1014,AMDA III / N,01-Mar-05,53.228884,7.219053,2.0,1,1,,,,,ISMD83 AMDN,ISID83 AMDN,ISND83 AMDN,ISXD83 AMDN,ISAD83 AMDN,ISHD83 AMDN,ISGD83 AMDN
E212,Moormerland-Neermoor,3342,AMDA III / N,01-Mar-05,53.311002,7.432865,0.0,1,1,,,,,ISMD83 AMDN,ISID83 AMDN,ISND83 AMDN,ISXD83 AMDN,ISAD83 AMDN,ISHD83 AMDN,ISGD83 AMDN
E229,Westerstede,5518,AMDA III / N,01-Oct-05,53.250384,7.934999,7.0,1,1,,,,,ISMD83 AMDN,ISID83 AMDN,ISND83 AMDN,ISXD83 AMDN,ISAD83 AMDN,ISHD83 AMDN,ISGD83 AMDN
E232,Ovelgönne,3853,AMDA III / N,01-Nov-04,53.381903,8.449286,2.0,1,1,,,,,ISMD83 AMDN,ISID83 AMDN,ISND83 AMDN,ISXD83 AMDN,ISAD83 AMDN,ISHD83 AMDN,ISGD83 AMDN
E234,Rastede,4078,AMDA III / N,01-Dec-05,53.242742,8.223653,16.0,2,2,,,,,ISMD83 AMDN,ISID83 AMDN,ISND83 AMDN,ISXD83 AMDN,ISAD83 AMDN,ISHD83 AMDN,ISGD83 AMDN
E235,Brake,642,AMDA III / W,27-Mar-08,53.351708,8.496926,1.0,,,3,,,,ISMD72 AMDW,ISID72 AMDW,ISND72 AMDW,ISXD72 AMDW,ISAD72 AMDW,ISHD72 AMDW,ISGD72 AMDW
E246,Schwanewede-Neuenkirchen,4594,AMDA III / N,01-Dec-05,53.233775,8.511537,1.0,1,1,,,,,ISMD83 AMDN,ISID83 AMDN,ISND83 AMDN,ISXD83 AMDN,ISAD83 AMDN,ISHD83 AMDN,ISGD83 AMDN
E254,Worpswede-Hüttenbusch,5014,AMDA III / S,01-Jul-04,53.275827,8.985687,7.0,2,2,,2,,,ISMD33 AMDS,ISID33 AMDS,ISND33 AMDS,ISXD33 AMDS,ISAD33 AMDS,ISHD33 AMDS,ISGD33 AMDS
E273,Rosengarten-Klecken,760,MODES III S,01-Dec-17,53.362898,9.943536,82.0,1,1,,1,,1,ISMD33 AMDS,ISID33 AMDS,ISND33 AMDS,ISXD33 AMDS,ISAD33 AMDS,ISHD33 AMDS,ISGD33 AMDS
E277,Königsmoor,2689,AMDA III / N,01-Nov-04,53.227933,9.652723,40.0,3,3,,,,,ISMD83 AMDN,ISID83 AMDN,ISND83 AMDN,ISXD83 AMDN,ISAD83 AMDN,ISHD83 AMDN,ISGD83 AMDN
E297,Bleckede-Walmsburg,542,MODES III N,01-Nov-04,53.240142,10.852162,12.0,2,2,,,,,ISMD83 AMDN,ISID83 AMDN,ISND83 AMDN,ISXD83 AMDN,ISAD83 AMDN,ISHD83 AMDN,ISGD83 AMDN
E298,Wendisch Evern,6093,MODES III S,01-May-04,53.213878,10.470375,62.0,3,3,,3,,3,ISMD33 AMDS,ISID33 AMDS,ISND33 AMDS,ISXD33 AMDS,ISAD33 AMDS,ISHD33 AMDS,ISGD33 AMDS
E335,Hude/Oldenburg,2355,AMDA III / N,01-Oct-05,53.122799,8.420460,4.0,1,1,,,,,ISMD83 AMDN,ISID83 AMDN,ISND83 AMDN,ISXD83 AMDN,ISAD83 AMDN,ISHD83 AMDN,ISGD83 AMDN
E342,Ottersberg-Otterstedt,3848,AMDA III / N,29-Apr-15,53.140297,9.151676,17.0,3,3,,,,,ISMD83 AMDN,ISID83 AMDN,ISND83 AMDN,ISXD83 AMDN,ISAD83 AMDN,ISHD83 AMDN,ISGD83 AMDN
E355,Rotenburg (Wümme),4275,AMDA III / S,01-Dec-04,53.128845,9.339751,32.0,1,,,1,1,1,ISMD33 AMDS,ISID33 AMDS,ISND33 AMDS,ISXD33 AMDS,ISAD33 AMDS,ISHD33 AMDS,ISGD33 AMDS
E364,Heeslingen-Wiersdorf,5767,AMDA III / N,01-Jan-06,53.298880,9.335166,27.0,1,1,,,,,ISMD83 AMDN,ISID83 AMDN,ISND83 AMDN,ISXD83 AMDN,ISAD83 AMDN,ISHD83 AMDN,ISGD83 AMDN
E374,Rehlingen-Ehlbeck,15512,MODES III N,16-Aug-16,53.085854,10.161069,65.5,1,1,,,,,ISMD83 AMDN,ISID83 AMDN,ISND83 AMDN,ISXD83 AMDN,ISAD83 AMDN,ISHD83 AMDN,ISGD83 AMDN
E387,Zernien,5762,MODES III N,01-Mar-09,53.070402,10.883125,83.0,3,3,,,,,ISMD83 AMDN,ISID83 AMDN,ISND83 AMDN,ISXD83 AMDN,ISAD83 AMDN,ISHD83 AMDN,ISGD83 AMDN
E402,Dörpen,6159,AMDA III / S,01-Dec-08,52.954182,7.319582,8.0,3,3,3,3,3,3,ISMD39 AMDS,ISID39 AMDS,ISND39 AMDS,ISXD39 AMDS,ISAD39 AMDS,ISHD39 AMDS,ISGD39 AMDS
E426,Großenkneten,44,AMDA III / S,01-Apr-07,52.933597,8.237038,43.5,2,2,,2,2,2,ISMD33 AMDS,ISID33 AMDS,ISND33 AMDS,ISXD33 AMDS,ISAD33 AMDS,ISHD33 AMDS,ISGD33 AMDS
E438,Bassum,5822,AMDA III / S,26-Jun-06,52.863040,8.698827,40.0,1,1,,1,1,,ISMD33 AMDS,ISID33 AMDS,ISND33 AMDS,ISXD33 AMDS,ISAD33 AMDS,ISHD33 AMDS,ISGD33 AMDS
E445,Schwarme,4600,AMDA III / N,01-Jul-05,52.908091,9.045263,12.0,1,1,,,,,ISMD83 AMDN,ISID83 AMDN,ISND83 AMDN,ISXD83 AMDN,ISAD83 AMDN,ISHD83 AMDN,ISGD83 AMDN
E451,Verden-Dauelsen,5209,AMDA III / N,01-Sep-04,52.958627,9.226861,21.0,2,2,,,,,ISMD83 AMDN,ISID83 AMDN,ISND83 AMDN,ISXD83 AMDN,ISAD83 AMDN,ISHD83 AMDN,ISGD83 AMDN
E475,Uelzen,5146,AMDA III / S,01-Jun-04,52.941435,10.528857,50.0,3,3,,3,3,,ISMD33 AMDS,ISID33 AMDS,ISND33 AMDS,ISXD33 AMDS,ISAD33 AMDS,ISHD33 AMDS,ISGD33 AMDS
E501,Twist-Hebelermeer,5132,AMDA III / N,01-Sep-05,52.743234,7.075035,19.0,2,2,,,,,ISMD83 AMDN,ISID83 AMDN,ISND83 AMDN,ISXD83 AMDN,ISAD83 AMDN,ISHD83 AMDN,ISGD83 AMDN
E513,Groß Berßen,1792,AMDA III / N,01-Dec-05,52.755257,7.481475,27.0,2,2,,,,,ISMD83 AMDN,ISID83 AMDN,ISND83 AMDN,ISXD83 AMDN,ISAD83 AMDN,ISHD83 AMDN,ISGD83 AMDN
E545,Barnstorf,292,AMDA III / N,01-Dec-05,52.696508,8.486956,37.0,1,1,,,,,ISMD83 AMDN,ISID83 AMDN,ISND83 AMDN,ISXD83 AMDN,ISAD83 AMDN,ISHD83 AMDN,ISGD83 AMDN
E564,Frankenfeld-Hedern,4883,AMDA III / N,01-Oct-05,52.765856,9.404617,18.0,1,1,,,,,ISMD83 AMDN,ISID83 AMDN,ISND83 AMDN,ISXD83 AMDN,ISAD83 AMDN,ISHD83 AMDN,ISGD83 AMDN
E571,"Fallingbostel, Bad",1336,AMDA III / N,01-Sep-04,52.856783,9.675630,70.0,3,3,,,,,ISMD83 AMDN,ISID83 AMDN,ISND83 AMDN,ISXD83 AMDN,ISAD83 AMDN,ISHD83 AMDN,ISGD83 AMDN
E586,Scharnhorst-Marwede,7361,AMDA III / N,01-Jul-06,52.736346,10.344026,72.0,1,1,,,,,ISMD83 AMDN,ISID83 AMDN,ISND83 AMDN,ISXD83 AMDN,ISAD83 AMDN,ISHD83 AMDN,ISGD83 AMDN
E601,Ringe-Großringe,1223,AMDA III / N,01-Sep-05,52.598293,6.944900,13.0,1,1,,,,,ISMD83 AMDN,ISID83 AMDN,ISND83 AMDN,ISXD83 AMDN,ISAD83 AMDN,ISHD83 AMDN,ISGD83 AMDN
E622,Fürstenau,4683,MODES III N,01-Apr-12,52.515951,7.676214,46.0,2,2,,,,,ISMD83 AMDN,ISID83 AMDN,ISND83 AMDN,ISXD83 AMDN,ISAD82AMDN,ISHD82 AMDN,ISGD82 AMDN
E626,Alfhausen,78,MODES III S,01-Nov-04,52.485314,7.912553,65.0,2,2,,2,,2,ISMD33 AMDS,ISID33 AMDS,ISND33 AMDS,ISXD33 AMDS,ISAD33 AMDS,ISHD33 AMDS,ISGD33 AMDS
E651,"Kirchdorf, Kreis Diepholz",2577,AMDA III / N,01-Oct-05,52.600687,8.852232,34.0,2,2,,,,,ISMD83 AMDN,ISID83 AMDN,ISND83 AMDN,ISXD83 AMDN,ISAD83 AMDN,ISHD83 AMDN,ISGD83 AMDN
E652,Nienburg,3612,AMDA III / S,01-Apr-07,52.671083,9.222910,25.0,2,,,2,2,2,ISMD33 AMDS,ISID33 AMDS,ISND33 AMDS,ISXD33 AMDS,ISAD33 AMDS,ISHD33 AMDS,ISGD33 AMDS
E659,Rehburg-Loccum,4112,MODES III N,01-Dec-06,52.439577,9.133518,60.0,4,4,,,,,ISMD83 AMDN,ISID83 AMDN,ISND83 AMDN,ISXD83 AMDN,ISAD83 AMDN,ISHD83 AMDN,ISGD83 AMDN
E662,Essel,4601,AMDA III / N,01-Aug-07,52.679692,9.652352,27.5,2,2,,,,,ISMD83 AMDN,ISID83 AMDN,ISND83 AMDN,ISXD83 AMDN,ISAD83 AMDN,ISHD83 AMDN,ISGD83 AMDN
E667,Neustadt am Rübenberge,3558,MODES III N,01-Dec-06,52.499952,9.494082,41.0,3,3,,,,,ISMD83 AMDN,ISID83 AMDN,ISND83 AMDN,ISXD83 AMDN,ISAD83 AMDN,ISHD83 AMDN,ISGD83 AMDN
E672,Wedemark-Elze,5382,MODES III N,01-May-06,52.588296,9.738570,39.0,2,2,,,,,ISMD83 AMDN,ISID83 AMDN,ISND83 AMDN,ISXD83 AMDN,ISAD83 AMDN,ISHD83 AMDN,ISGD83 AMDN
E673,Celle (Stadt),848,AMDA III / N,16-Jun-08,52.614642,10.072598,38.0,1,1,,,,,ISMD83 AMDN,ISID83 AMDN,ISND83 AMDN,ISXD83 AMDN,ISAD83 AMDN,ISHD83 AMDN,ISGD83 AMDN
E688,Uetze,5148,MODES III N,01-Jul-06,52.458765,10.188826,60.0,2,2,,,,,ISMD83 AMDN,ISID83 AMDN,ISND83 AMDN,ISXD83 AMDN,ISAD83 AMDN,ISHD83 AMDN,ISGD83 AMDN
E691,Wittingen-Vorhop,7432,AMDA III / S,01-May-07,52.642293,10.662715,71.5,2,2,,2,2,2,ISMD33 AMDS,ISID33 AMDS,ISND33 AMDS,ISXD33 AMDS,ISAD33 AMDS,ISHD33 AMDS,ISGD33 AMDS
E704,"Bentheim, Bad",357,MODES III N,01-Sep-05,52.301792,7.130106,50.0,2,2,,,,,ISMD83 AMDN,ISID83 AMDN,ISND83 AMDN,ISXD83 AMDN,ISAD83 AMDN,ISHD83 AMDN,ISGD83 AMDN
E711,Ostercappeln-Schwagstorf,3820,MODES III N,01-Nov-07,52.365690,8.201275,52.0,2,2,,,,,ISMD83 AMDN,ISID83 AMDN,ISND83 AMDN,ISXD83 AMDN,ISAD83 AMDN,ISHD83 AMDN,ISGD83 AMDN
E718,"Essen-Brockhausen, Bad",1304,MODES III N,01-Apr-06,52.334533,8.387740,48.0,2,2,,,,,ISMD83 AMDN,ISID83 AMDN,ISND83 AMDN,ISXD83 AMDN,ISAD83 AMDN,ISHD83 AMDN,ISGD83 AMDN
E727,"Rothenfelde, Bad",4288,AMDA III / N,01-Dec-05,52.103832,8.180841,95.0,1,1,,,,,ISMD83 AMDN,ISID83 AMDN,ISND83 AMDN,ISXD83 AMDN,ISAD83 AMDN,ISHD83 AMDN,ISGD83 AMDN
E732,Hameln,1993,MODES III W,15-Oct-09,52.084784,9.389576,68.0,,,5,,5,,ISMD72 AMDW,ISID72 AMDW,ISND72 AMDW,ISXD72 AMDW,ISAD72 AMDW,ISHD72 AMDW,ISGD72 AMDW
E738,Rinteln-Volksen,7425,MODES III N,01-Aug-06,52.138381,9.111943,212.0,2,2,,,,,ISMD83 AMDN,ISID83 AMDN,ISND83 AMDN,ISXD83 AMDN,ISAD83 AMDN,ISHD83 AMDN,ISGD83 AMDN
E739,Hameln-Hastenbeck,13675,MODES III S,01-Nov-07,52.081826,9.407661,77.0,4,4,,4,,4,ISMD33 AMDS,ISID33 AMDS,ISND33 AMDS,ISXD33 AMDS,ISAD33 AMDS,ISHD33 AMDS,ISGD33 AMDS
E744,Barsinghausen-Hohenbostel,294,AMDA III / S,01-Jul-04,52.319850,9.429984,110.0,3,,,3,,,ISMD33 AMDS,ISID33 AMDS,ISND33 AMDS,ISXD33 AMDS,ISAD33 AMDS,ISHD33 AMDS,ISGD33 AMDS
E748,Salzhemmendorf-Lauenstein,4367,AMDA III / N,01-Sep-09,52.078066,9.551981,175.0,1,,,,,,ISMD83 AMDN,ISID83 AMDN,ISND83 AMDN,ISXD83 AMDN,ISAD83 AMDN,ISHD83 AMDN,ISGD83 AMDN
E755,Hannover-Herrenhausen,2011,AMDA III / N,01-Jan-05,52.396469,9.662863,50.0,1,1,,,,,ISMD83 AMDN,ISID83 AMDN,ISND83 AMDN,ISXD83 AMDN,ISAD83 AMDN,ISHD83 AMDN,ISGD83 AMDN
E756,Hannover-Kirchrode,2012,AMDA III / N,01-Jun-10,52.367103,9.819005,57.0,1,,,,,,ISMD83 AMDN,ISID83 AMDN,ISND83 AMDN,ISXD83 AMDN,ISAD83 AMDN,ISHD83 AMDN,ISGD83 AMDN
E762,Lehrte-Sievershausen,13699,AMDA III / N,01-Mar-08,52.366687,10.126565,66.0,2,2,,,,,ISMD83 AMDN,ISID83 AMDN,ISND83 AMDN,ISXD83 AMDN,ISAD83 AMDN,ISHD83 AMDN,ISGD83 AMDN
E764,Springe,4790,MODES III N,01-Mar-06,52.205394,9.566817,98.0,3,3,,,,,ISMD83 AMDN,ISID83 AMDN,ISND83 AMDN,ISXD83 AMDN,ISAD83 AMDN,ISHD83 AMDN,ISGD83 AMDN
E790,Wolfsburg (Südwest),5676,MODES III S,01-Sep-10,52.396186,10.689225,82.0,3,3,,3,,,ISMD33 AMDS,ISID33 AMDS,ISND33 AMDS,ISXD33 AMDS,ISAD33 AMDS,ISHD33 AMDS,ISGD33 AMDS
E792,Süpplingen,4947,AMDA III / W,01-Nov-06,52.231737,10.920002,129.0,,,2,,2,,ISMD72 AMDW,ISID72 AMDW,ISND72 AMDW,ISXD72 AMDW,ISAD72 AMDW,ISHD72 AMDW,ISGD72 AMDW
E798,Helmstedt-Emmerstedt,13777,AMDA III / S,01-Jun-08,52.246667,10.959196,110.0,1,1,,1,,1,ISMD33 AMDS,ISID33 AMDS,ISND33 AMDS,ISXD33 AMDS,ISAD33 AMDS,ISHD33 AMDS,ISGD33 AMDS
E799,Cremlingen-Destedt,1278,MODES III N,01-Dec-07,52.244852,10.718235,160.0,2,,,,,,ISMD83 AMDN,ISID83 AMDN,ISND83 AMDN,ISXD83 AMDN,ISAD83 AMDN,ISHD83 AMDN,ISGD83 AMDN
E805,Ottenstein,3844,MODES III N,01-Jul-09,51.947266,9.399893,295.0,2,2,,,,,ISMD83 AMDN,ISID83 AMDN,ISND83 AMDN,ISXD83 AMDN,ISAD83 AMDN,ISHD83 AMDN,ISGD83 AMDN
E818,"Bevern, Kr. Holzminden",2323,AMDA III / S,01-Jul-06,51.852940,9.495274,110.0,2,2,,2,,,ISMD33 AMDS,ISID33 AMDS,ISND33 AMDS,ISXD33 AMDS,ISAD33 AMDS,ISHD33 AMDS,ISGD33 AMDS
E835,Eimen-Vorwohle,1170,AMDA III / N,01-Jul-07,51.887336,9.727987,265.0,1,1,,,,,ISMD83 AMDN,ISID83 AMDN,ISND83 AMDN,ISXD83 AMDN,ISAD83 AMDN,ISHD83 AMDN,ISGD83 AMDN
E839,Moringen-Lutterbeck,3348,AMDA III / S,01-Jun-04,51.720864,9.835180,240.0,3,3,,3,,3,ISMD33 AMDS,ISID33 AMDS,ISND33 AMDS,ISXD33 AMDS,ISAD33 AMDS,ISHD33 AMDS,ISGD33 AMDS
E857,Northeim-Stöckheim,3651,MODES III W,27-Aug-08,51.752086,9.945040,109.0,,,2,,,,ISMD72 AMDW,ISID72 AMDW,ISND72 AMDW,ISXD72 AMDW,ISAD72 AMDW,ISHD72 AMDW,ISGD72 AMDW
E858,Northeim-Imbshausen,3650,MODES III N,01-Dec-04,51.763036,10.041607,212.0,2,2,,,,,ISMD83 AMDN,ISID83 AMDN,ISND83 AMDN,ISXD83 AMDN,ISAD83 AMDN,ISHD83 AMDN,ISGD83 AMDN
E864,Seesen,4651,AMDA III / S,01-Nov-04,51.903973,10.188523,186.0,1,1,,1,,1,ISMD33 AMDS,ISID33 AMDS,ISND33 AMDS,ISXD33 AMDS,ISAD33 AMDS,ISHD33 AMDS,ISGD33 AMDS
E871,Liebenburg-Othfresen,7099,MODES III S,01-Nov-04,52.011142,10.396557,187.0,2,2,,2,2,,ISMD33 AMDS,ISID33 AMDS,ISND33 AMDS,ISXD33 AMDS,ISAD33 AMDS,ISHD33 AMDS,ISGD33 AMDS
E884,Langelsheim-Astfeld,2839,AMDA III / N,01-Dec-06,51.926172,10.346086,210.0,1,1,,,,,ISMD83 AMDN,ISID83 AMDN,ISND83 AMDN,ISXD83 AMDN,ISAD83 AMDN,ISHD83 AMDN,ISGD83 AMDN
E897,"Harzburg, Bad",2039,MODES III S,01-Nov-06,51.900249,10.569851,201.0,2,,,2,,,ISMD33 AMDS,ISID33 AMDS,ISND33 AMDS,ISXD33 AMDS,ISAD33 AMDS,ISHD33 AMDS,ISGD33 AMDS
E902,Bodenfelde-Amelith,567,AMDA III / N,01-Sep-09,51.695724,9.513524,258.0,2,2,,,,,ISMD83 AMDN,ISID83 AMDN,ISND83 AMDN,ISXD83 AMDN,ISAD83 AMDN,ISHD83 AMDN,ISGD83 AMDN
E931,Berka,378,AMDA III / N,01-Apr-05,51.684265,10.107677,136.0,1,1,,,,,ISMD83 AMDN,ISID83 AMDN,ISND83 AMDN,ISXD83 AMDN,ISAD83 AMDN,ISHD83 AMDN,ISGD83 AMDN
E944,Herzberg,2174,AMDA III / S,01-Nov-10,51.625476,10.369512,238.0,1,1,,1,1,1,ISMD33 AMDS,ISID33 AMDS,ISND33 AMDS,ISXD33 AMDS,ISAD33 AMDS,ISHD33 AMDS,ISGD33 AMDS
E950,Herzberg-Lonau,2175,AMDA III / N,01-Nov-06,51.688966,10.357039,340.0,1,1,,,,,ISMD83 AMDN,ISID83 AMDN,ISND83 AMDN,ISXD83 AMDN,ISAD83 AMDN,ISHD83 AMDN,ISGD83 AMDN
E955,"Lauterberg,Bad-Bartolfelde",2890,MODES III N,01-Sep-06,51.595702,10.462961,305.0,2,2,,,,,ISMD83 AMDN,ISID83 AMDN,ISND83 AMDN,ISXD83 AMDN,ISAD83 AMDN,ISHD83 AMDN,ISGD83 AMDN
E970,Dransfeld-Ossenfeld,1039,AMDA III / N,01-Dec-04,51.526295,9.797802,317.0,1,1,,,,,ISMD83 AMDN,ISID83 AMDN,ISND83 AMDN,ISXD83 AMDN,ISAD83 AMDN,ISHD83 AMDN,ISGD83 AMDN
F020,Meyenburg,3280,MODES III N,01-Jul-04,53.308318,12.293694,98.0,3,3,,,,,ISMD82 AMDN,ISID82 AMDN,ISND82 AMDN,ISXD82 AMDN,ISAD82 AMDN,ISHD82 AMDN,ISGD82 AMDN
F050,Uckerland-Karlstein,2438,MODES III N,01-Apr-08,53.427717,13.816672,40.0,3,3,,,,,ISMD82 AMDN,ISID82 AMDN,ISND82 AMDN,ISXD82 AMDN,ISAD82 AMDN,ISHD82 AMDN,ISGD82 AMDN
F069,Hohenreinkendorf,4984,AMDA III / N,01-Nov-04,53.225167,14.329961,46.0,1,1,,,,,ISMD82 AMDN,ISID82 AMDN,ISND82 AMDN,ISXD82 AMDN,ISAD82 AMDN,ISHD82 AMDN,ISGD82 AMDN
F105,Lenzen/Elbe,2951,AMDA III / S,01-Jun-04,53.100708,11.486414,20.0,2,2,,2,2,2,ISMD32 AMDS,ISID32 AMDS,ISND32 AMDS,ISXD32 AMDS,ISAD32 AMDS,ISHD32 AMDS,ISGD32 AMDS
F108,Karstädt/Prignitz,2531,MODES III N,01-Jul-04,53.172429,11.749144,32.0,3,3,,,,,ISMD82 AMDN,ISID82 AMDN,ISND82 AMDN,ISXD82 AMDN,ISAD82 AMDN,ISHD82 AMDN,ISGD82 AMDN
F125,Kuhbier,2779,AMDA III / N,01-Nov-04,53.148583,12.085137,63.0,2,2,,,,,ISMD82 AMDN,ISID82 AMDN,ISND82 AMDN,ISXD82 AMDN,ISAD82 AMDN,ISHD82 AMDN,ISGD82 AMDN
F143,Wittstock-Rote Mühle,5643,MODES III S,01-Nov-04,53.186438,12.494905,66.0,2,2,,2,,2,ISMD32 AMDS,ISID32 AMDS,ISND32 AMDS,ISXD32 AMDS,ISAD32 AMDS,ISHD32 AMDS,ISGD32 AMDS
F151,Menz,3509,MODES III S,01-Oct-04,53.101974,13.042072,77.0,2,2,,2,,,ISMD32 AMDS,ISID32 AMDS,ISND32 AMDS,ISXD32 AMDS,ISAD32 AMDS,ISHD32 AMDS,ISGD32 AMDS
F172,Mittenwalde/Uckermark,3308,AMDA III / N,01-Aug-05,53.184619,13.654601,72.0,1,1,,,,,ISMD82 AMDN,ISID82 AMDN,ISND82 AMDN,ISXD82 AMDN,ISAD82 AMDN,ISHD82 AMDN,ISGD82 AMDN
F178,Neuruppin-Gühlen Glienicke,3473,MODES III N,01-Nov-04,53.052813,12.756219,89.0,3,3,,,,,ISMD82 AMDN,ISID82 AMDN,ISND82 AMDN,ISXD82 AMDN,ISAD82 AMDN,ISHD82 AMDN,ISGD82 AMDN
F191,Passow,3881,AMDA III / N,01-Nov-04,53.141964,14.107476,12.0,3,3,,,,,ISMD82 AMDN,ISID82 AMDN,ISND82 AMDN,ISXD82 AMDN,ISAD82 AMDN,ISHD82 AMDN,ISGD82 AMDN
F199,Berkholz-Meyenburg,7079,MODES III N,01-Dec-04,53.044302,14.242319,14.0,2,2,,,,,ISMD82 AMDN,ISID82 AMDN,ISND82 AMDN,ISXD82 AMDN,ISAD82 AMDN,ISHD82 AMDN,ISGD82 AMDN
F210,Perleberg,3906,MODES III N,01-May-04,53.095176,11.860293,40.0,4,4,,,,,ISMD82 AMDN,ISID82 AMDN,ISND82 AMDN,ISXD82 AMDN,ISAD82 AMDN,ISHD82 AMDN,ISGD82 AMDN
F263,Zehdenick,5745,AMDA III / S,01-Jun-04,52.966353,13.326781,51.0,2,2,,2,2,2,ISMD32 AMDS,ISID32 AMDS,ISND32 AMDS,ISXD32 AMDS,ISAD32 AMDS,ISHD32 AMDS,ISGD32 AMDS
F265,Schorfheide-Groß Schönebeck,1810,MODES III N,01-Jul-14,52.909383,13.537115,56.0,3,3,,,,,ISMD82 AMDN,ISID82 AMDN,ISND82 AMDN,ISXD82 AMDN,ISAD82 AMDN,ISHD82 AMDN,ISGD82 AMDN
F280,Friedrichswalde,1497,AMDA III / N,01-Dec-04,53.023838,13.708797,75.0,1,1,,,,,ISMD82 AMDN,ISID82 AMDN,ISND82 AMDN,ISXD82 AMDN,ISAD82 AMDN,ISHD82 AMDN,ISGD82 AMDN
F305,Kleßen,2625,MODES III N,01-Jul-04,52.739045,12.498378,38.0,2,2,,,,,ISMD82 AMDN,ISID82 AMDN,ISND82 AMDN,ISXD82 AMDN,ISAD82 AMDN,ISHD82 AMDN,ISGD82 AMDN
F325,Kremmen-Groß Ziethen,2733,AMDA III / N,01-Nov-04,52.727740,13.012119,46.0,3,3,,,,,ISMD82 AMDN,ISID82 AMDN,ISND82 AMDN,ISXD82 AMDN,ISAD82 AMDN,ISHD82 AMDN,ISGD82 AMDN
F338,Marwitz (Wasserwerk),3205,MODES III N,01-Aug-05,52.657944,13.178974,33.0,4,4,,,,,ISMD82 AMDN,ISID82 AMDN,ISND82 AMDN,ISXD82 AMDN,ISAD82 AMDN,ISHD82 AMDN,ISGD82 AMDN
F361,Heckelberg,7389,MODES III S,01-Dec-06,52.746142,13.842702,82.0,3,3,3,3,3,3,ISMD39 AMDS,ISID39 AMDS,ISND39 AMDS,ISXD39 AMDS,ISAD39 AMDS,ISHD39 AMDS,ISGD39 AMDS
F385,Wustrow,5729,AMDA III / N,01-Aug-05,52.760473,14.217325,6.0,2,2,,,,,ISMD82 AMDN,ISID82 AMDN,ISND82 AMDN,ISXD82 AMDN,ISAD82 AMDN,ISHD82 AMDN,ISGD82 AMDN
F419,Wusterwitz,6265,MODES III S,01-May-04,52.361259,12.386695,36.0,3,3,,3,3,,ISMD32 AMDS,ISID32 AMDS,ISND32 AMDS,ISXD32 AMDS,ISAD32 AMDS,ISHD32 AMDS,ISGD32 AMDS
F431,Berge,5825,MODES III S,01-May-04,52.619829,12.786684,40.0,3,3,3,3,3,3,ISMD39 AMDS,ISID39 AMDS,ISND39 AMDS,ISXD39 AMDS,ISAD39 AMDS,ISHD39 AMDS,ISGD39 AMDS
F448,Staaken,4637,MODES III N,01-Aug-08,52.540408,13.124293,31.0,4,4,,,,,ISMD82 AMDN,ISID82 AMDN,ISND82 AMDN,ISXD82 AMDN,ISAD82 AMDN,ISHD82 AMDN,ISGD82 AMDN
F451,Ahrensfelde,53,AMDA III / N,01-Oct-05,52.585015,13.563378,60.0,2,,,,,,ISMD82 AMDN,ISID82 AMDN,ISND82 AMDN,ISXD82 AMDN,ISAD82 AMDN,ISHD82 AMDN,ISGD82 AMDN
F470,Strausberg,4912,AMDA III / N,01-Jul-06,52.588376,13.928872,81.0,5,5,,,,,ISMD82 AMDN,ISID82 AMDN,ISND82 AMDN,ISXD82 AMDN,ISAD82 AMDN,ISHD82 AMDN,ISGD82 AMDN
F475,Müncheberg,3376,MODES III S,01-Jun-04,52.517588,14.123226,63.0,2,2,2,2,2,2,ISMD39 AMDS,ISID39 AMDS,ISND39 AMDS,ISXD39 AMDS,ISAD39 AMDS,ISHD39 AMDS,ISGD39 AMDS
F509,Wollin,5684,MODES III N,01-Nov-17,52.281290,12.458046,40.0,1,1,,,,,ISMD82 AMDN,ISID82 AMDN,ISND82 AMDN,ISXD82 AMDN,ISAD82 AMDN,ISHD82 AMDN,ISGD82 AMDN
F518,Brandenburg/Havel,6253,MODES III W,01-Oct-07,52.422811,12.566729,31.0,,,4,,,,ISMD71 AMDW,ISID71 AMDW,ISND71 AMDW,ISXD71 AMDW,ISAD71 AMDW,ISHD71 AMDW,ISGD71 AMDW
F520,Groß Kreutz,1801,AMDA III / N,01-Jul-04,52.404201,12.792254,31.0,2,2,,,,,ISMD82 AMDN,ISID82 AMDN,ISND82 AMDN,ISXD82 AMDN,ISAD82 AMDN,ISHD82 AMDN,ISGD82 AMDN
F545,Thyrow,5555,AMDA III / N,01-Nov-04,52.253376,13.236146,43.0,1,1,,,,,ISMD82 AMDN,ISID82 AMDN,ISND82 AMDN,ISXD82 AMDN,ISAD82 AMDN,ISHD82 AMDN,ISGD82 AMDN
F598,Pohlitz,3967,MODES III N,01-Apr-05,52.183643,14.574787,70.0,3,3,,,,,ISMD82 AMDN,ISID82 AMDN,ISND82 AMDN,ISXD82 AMDN,ISAD82 AMDN,ISHD82 AMDN,ISGD82 AMDN
F620,Brück-Gömnigk,735,AMDA III / N,01-May-05,52.169227,12.733368,52.0,2,2,,,,,ISMD82 AMDN,ISID82 AMDN,ISND82 AMDN,ISXD82 AMDN,ISAD82 AMDN,ISHD82 AMDN,ISGD82 AMDN
F635,Felgentreu,1350,AMDA III / N,01-Aug-07,52.099737,13.001629,48.0,2,2,,,,,ISMD82 AMDN,ISID82 AMDN,ISND82 AMDN,ISXD82 AMDN,ISAD82 AMDN,ISHD82 AMDN,ISGD82 AMDN
F660,Münchehofe,13712,MODES III N,01-Sep-08,52.148824,13.835914,44.0,2,2,,,,,ISMD82 AMDN,ISID82 AMDN,ISND82 AMDN,ISXD82 AMDN,ISAD82 AMDN,ISHD82 AMDN,ISGD82 AMDN
F681,Neu Madlitz,714,AMDA III / N,01-Jun-05,52.365259,14.247393,46.0,1,1,,,,,ISMD82 AMDN,ISID82 AMDN,ISND82 AMDN,ISXD82 AMDN,ISAD82 AMDN,ISHD82 AMDN,ISGD82 AMDN
F695,Coschen,6170,MODES III S,01-Jun-04,52.019183,14.725443,40.0,2,2,,2,,2,ISMD32 AMDS,ISID32 AMDS,ISND32 AMDS,ISXD32 AMDS,ISAD32 AMDS,ISHD32 AMDS,ISGD32 AMDS
F707,Langenlipsdorf,2856,MODES III S,01-Jul-04,51.917335,13.087762,91.0,2,,2,2,,2,ISMD39 AMDS,ISID39 AMDS,ISND39 AMDS,ISXD39 AMDS,ISAD39 AMDS,ISHD39 AMDS,ISGD39 AMDS
F736,Hohenbucko,2278,MODES III N,01-Dec-04,51.764009,13.469979,131.0,2,2,,,,,ISMD82 AMDN,ISID82 AMDN,ISND82 AMDN,ISXD82 AMDN,ISAD82 AMDN,ISHD82 AMDN,ISGD82 AMDN
F742,Lübben-Blumenfelde,3083,MODES III S,01-Jan-05,51.926689,13.879699,57.0,3,3,,3,3,3,ISMD32 AMDS,ISID32 AMDS,ISND32 AMDS,ISXD32 AMDS,ISAD32 AMDS,ISHD32 AMDS,ISGD32 AMDS
F757,"Bischdorf, Kreis Oberspreewald",504,AMDA III / N,01-Jun-07,51.798081,13.971789,78.0,1,1,,,,,ISMD82 AMDN,ISID82 AMDN,ISND82 AMDN,ISXD82 AMDN,ISAD82 AMDN,ISHD82 AMDN,ISGD82 AMDN
F770,Lieberose,2997,AMDA III / N,01-Jul-04,51.986100,14.304405,47.0,1,1,,,,,ISMD82 AMDN,ISID82 AMDN,ISND82 AMDN,ISXD82 AMDN,ISAD82 AMDN,ISHD82 AMDN,ISGD82 AMDN
F878,Graustein,1744,AMDA III / N,01-Dec-04,51.571760,14.476360,139.0,1,1,,,,,ISMD82 AMDN,ISID82 AMDN,ISND82 AMDN,ISXD82 AMDN,ISAD82 AMDN,ISHD82 AMDN,ISGD82 AMDN
F925,Elsterwerda,1210,MODES III N,01-Jul-06,51.450535,13.504610,90.0,4,4,,,,,ISMD82 AMDN,ISID82 AMDN,ISND82 AMDN,ISXD82 AMDN,ISAD82 AMDN,ISHD82 AMDN,ISGD82 AMDN
F951,Klettwitz,2627,MODES III S,01-Jul-04,51.555458,13.884517,128.0,3,3,,3,3,3,ISMD32 AMDS,ISID32 AMDS,ISND32 AMDS,ISXD32 AMDS,ISAD32 AMDS,ISHD32 AMDS,ISGD32 AMDS
G002,Berlin-Buch,400,MODES III S,01-Jun-04,52.630941,13.502150,60.0,2,2,,2,,,ISMD32 AMDS,ISID32 AMDS,ISND32 AMDS,ISXD32 AMDS,ISAD32 AMDS,ISHD32 AMDS,ISGD32 AMDS
G005,Berlin-Marzahn,420,MODES III S,01-Aug-07,52.544749,13.559774,60.0,3,3,,3,,3,ISMD32 AMDS,ISID32 AMDS,ISND32 AMDS,ISXD32 AMDS,ISAD32 AMDS,ISHD32 AMDS,ISGD32 AMDS
G006,Berlin-Kaniswall,410,MODES III S,01-May-04,52.404034,13.730854,33.0,,3,,,,,ISMD32 AMDS,ISID32 AMDS,ISND32 AMDS,ISXD32 AMDS,ISAD32 AMDS,ISHD32 AMDS,ISGD32 AMDS
H009,Westerkappeln,5513,MODES III N,01-Sep-05,52.290208,7.868747,92.0,4,4,,,,,ISMD84 AMDN,ISID84 AMDN,ISND84 AMDN,ISXD84 AMDN,ISAD84 AMDN,ISHD84 AMDN,ISGD84 AMDN
H012,Rahden-Kleinendorf,4063,MODES III S,01-Sep-03,52.446122,8.590574,40.5,3,3,,3,3,3,ISMD34 AMDS,ISID34 AMDS,ISND34 AMDS,ISXD34 AMDS,ISAD34 AMDS,ISHD34 AMDS,ISGD34 AMDS
H027,Petershagen,3913,AMDA III / N,01-Jul-04,52.381700,9.017551,43.0,1,1,,,,,ISMD84 AMDN,ISID84 AMDN,ISND84 AMDN,ISXD84 AMDN,ISAD84 AMDN,ISHD84 AMDN,ISGD84 AMDN
H058,Steinfurt-Burgsteinfurt,4849,MODES III N,01-Jun-05,52.117259,7.341055,64.0,2,2,,,,,ISMD84 AMDN,ISID84 AMDN,ISND84 AMDN,ISXD84 AMDN,ISAD84 AMDN,ISHD84 AMDN,ISGD84 AMDN
H061,Hörstel-Riesenbeck,2254,MODES III N,01-Jun-05,52.239575,7.644860,46.0,2,2,,,,,ISMD84 AMDN,ISID84 AMDN,ISND84 AMDN,ISXD84 AMDN,ISAD84 AMDN,ISHD84 AMDN,ISGD84 AMDN
H081,Espelkamp-Isenstedt,3081,MODES III N,01-Dec-07,52.345157,8.647666,65.0,2,,,,,,ISMD84 AMDN,ISID84 AMDN,ISND84 AMDN,ISXD84 AMDN,ISAD84 AMDN,ISHD84 AMDN,ISGD84 AMDN
H119,Coesfeld,871,MODES III N,01-Aug-05,51.961750,7.158484,87.0,2,2,,,,,ISMD84 AMDN,ISID84 AMDN,ISND84 AMDN,ISXD84 AMDN,ISAD84 AMDN,ISHD84 AMDN,ISGD84 AMDN
H142,Lienen-Kattenvenne,2999,MODES III N,01-Jul-04,52.121146,7.869893,55.0,2,2,,,,,ISMD84 AMDN,ISID84 AMDN,ISND84 AMDN,ISXD84 AMDN,ISAD84 AMDN,ISHD84 AMDN,ISGD84 AMDN
H145,Ostbevern-Schirlheide,13669,MODES III N,01-Sep-07,52.008731,7.851950,55.0,2,,,,,,ISMD84 AMDN,ISID84 AMDN,ISND84 AMDN,ISXD84 AMDN,ISAD84 AMDN,ISHD84 AMDN,ISGD84 AMDN
H170,Enger,1241,MODES III N,01-Dec-06,52.150005,8.522615,128.0,2,2,,,,,ISMD84 AMDN,ISID84 AMDN,ISND84 AMDN,ISXD84 AMDN,ISAD84 AMDN,ISHD84 AMDN,ISGD84 AMDN
H174,Bielefeld-Deppendorf,7106,MODES III S,01-Sep-06,52.071449,8.456493,105.0,3,3,,3,3,3,ISMD34 AMDS,ISID34 AMDS,ISND34 AMDS,ISXD34 AMDS,ISAD34 AMDS,ISHD34 AMDS,ISGD34 AMDS
H203,Kleve,2629,MODES III S,01-Jul-04,51.761242,6.095381,46.0,4,4,,4,,,ISMD34 AMDS,ISID34 AMDS,ISND34 AMDS,ISXD34 AMDS,ISAD34 AMDS,ISHD34 AMDS,ISGD34 AMDS
H212,Dahlem-Schmidtheim,902,AMDA III / N,01-Oct-06,50.411493,6.561503,572.5,1,1,,,,,ISMD84 AMDN,ISID84 AMDN,ISND84 AMDN,ISXD84 AMDN,ISAD84 AMDN,ISHD84 AMDN,ISGD84 AMDN
H235,Reken-Groß Reken,4150,MODES III N,01-Dec-05,51.811752,7.090713,59.0,2,2,,,,,ISMD84 AMDN,ISID84 AMDN,ISND84 AMDN,ISXD84 AMDN,ISAD84 AMDN,ISHD84 AMDN,ISGD84 AMDN
H247,Lüdinghausen-Brochtrup,6337,MODES III S,01-Aug-04,51.766324,7.519303,58.9,3,3,,3,3,,ISMD34 AMDS,ISID34 AMDS,ISND34 AMDS,ISXD34 AMDS,ISAD34 AMDS,ISHD34 AMDS,ISGD34 AMDS
H257,Drensteinfurt,1046,MODES III N,01-Oct-04,51.758488,7.752784,72.0,2,2,,,,,ISMD84 AMDN,ISID84 AMDN,ISND84 AMDN,ISXD84 AMDN,ISAD84 AMDN,ISHD84 AMDN,ISGD84 AMDN
H261,Harsewinkel,2027,MODES III N,01-Jun-06,51.975316,8.209404,63.0,3,3,,,,,ISMD84 AMDN,ISID84 AMDN,ISND84 AMDN,ISXD84 AMDN,ISAD84 AMDN,ISHD84 AMDN,ISGD84 AMDN
H265,Gütersloh/Ems,13693,MODES III W,11-Jun-08,51.925818,8.311056,70.0,,,2,,,,ISMD74 AMDW,ISID74 AMDW,ISND74 AMDW,ISXD74 AMDW,ISAD74 AMDW,ISHD74 AMDW,ISGD74 AMDW
H281,"Lage, Kreis Lippe-Hörste",2810,MODES III N,01-Dec-06,51.944572,8.774854,150.0,2,2,,,,,ISMD84 AMDN,ISID84 AMDN,ISND84 AMDN,ISXD84 AMDN,ISAD84 AMDN,ISHD84 AMDN,ISGD84 AMDN
H311,Xanten,5733,MODES III N,01-May-05,51.696974,6.397410,20.0,2,2,,,,,ISMD84 AMDN,ISID84 AMDN,ISND84 AMDN,ISXD84 AMDN,ISAD84 AMDN,ISHD84 AMDN,ISGD84 AMDN
H312,Xanten (Wasserwerk),15190,MODES III W,01-Jul-18,51.680167,6.434935,17.9,,,1,,,,ISMD74 AMDW,ISID74 AMDW,ISND74 AMDW,ISXD74 AMDW,ISAD74 AMDW,ISHD74 AMDW,ISGD74 AMDW
H330,Haltern (Wasserwerk),13901,AMDA III / W,20-Nov-08,51.734258,7.199836,41.0,,,2,,,,ISMD74 AMDW,ISID74 AMDW,ISND74 AMDW,ISXD74 AMDW,ISAD74 AMDW,ISHD74 AMDW,ISGD74 AMDW
H333,Olfen,3795,MODES III N,01-Dec-04,51.706577,7.356366,48.5,2,2,,,,,ISMD84 AMDN,ISID84 AMDN,ISND84 AMDN,ISXD84 AMDN,ISAD84 AMDN,ISHD84 AMDN,ISGD84 AMDN
H336,Gelsenkirchen-Buer,1595,MODES III N,01-Oct-12,51.576234,7.065182,91.0,2,2,,,,,ISMD84 AMDN,ISID84 AMDN,ISND84 AMDN,ISXD84 AMDN,ISAD84 AMDN,ISHD84 AMDN,ISGD84 AMDN
H361,Ennigerloh-Ostenfelde,1246,MODES III S,19-Jun-15,51.841775,8.060717,104.0,4,4,,4,4,4,ISMD34 AMDS,ISID34 AMDS,ISND34 AMDS,ISXD34 AMDS,ISAD34 AMDS,ISHD34 AMDS,ISGD34 AMDS
H372,Delbrück,934,MODES III N,01-Oct-04,51.783521,8.565808,88.0,2,2,,,,,ISMD84 AMDN,ISID84 AMDN,ISND84 AMDN,ISXD84 AMDN,ISAD84 AMDN,ISHD84 AMDN,ISGD84 AMDN
H376,Salzkotten,4368,MODES III N,01-Oct-04,51.709756,8.579609,92.5,2,2,,,,,ISMD84 AMDN,ISID84 AMDN,ISND84 AMDN,ISXD84 AMDN,ISAD84 AMDN,ISHD84 AMDN,ISGD84 AMDN
H377,Lippstadt-Bökenförde,3031,AMDA III / S,01-Jul-04,51.633617,8.394450,92.0,1,1,,1,1,1,ISMD34 AMDS,ISID34 AMDS,ISND34 AMDS,ISXD34 AMDS,ISAD34 AMDS,ISHD34 AMDS,ISGD34 AMDS
H391,Brakel,644,AMDA III / N,01-Jan-05,51.704894,9.173804,150.0,2,2,,,,,ISMD84 AMDN,ISID84 AMDN,ISND84 AMDN,ISXD84 AMDN,ISAD84 AMDN,ISHD84 AMDN,ISGD84 AMDN
H401,Geldern-Walbeck,1590,MODES III S,01-Sep-03,51.494168,6.246343,37.0,2,2,,2,2,2,ISMD34 AMDS,ISID34 AMDS,ISND34 AMDS,ISXD34 AMDS,ISAD34 AMDS,ISHD34 AMDS,ISGD34 AMDS
H411,Borken in Westfalen,617,MODES III S,01-Jun-04,51.873046,6.886297,47.0,2,2,,2,,2,ISMD34 AMDS,ISID34 AMDS,ISND34 AMDS,ISXD34 AMDS,ISAD34 AMDS,ISHD34 AMDS,ISGD34 AMDS
H412,Bocholt-Liedern (Wasserwerk),554,MODES III N,01-May-15,51.829300,6.536510,23.0,2,2,,,,,ISMD84 AMDN,ISID84 AMDN,ISND84 AMDN,ISXD84 AMDN,ISAD84 AMDN,ISHD84 AMDN,ISGD84 AMDN
H419,Duisburg-Baerl,13670,MODES III S,01-Jun-07,51.508794,6.701773,24.0,2,,,2,,,ISMD34 AMDS,ISID34 AMDS,ISND34 AMDS,ISXD34 AMDS,ISAD34 AMDS,ISHD34 AMDS,ISGD34 AMDS
H420,Dinslaken,989,MODES III N,01-Feb-05,51.576478,6.784929,53.0,2,2,,,,,ISMD84 AMDN,ISID84 AMDN,ISND84 AMDN,ISXD84 AMDN,ISAD84 AMDN,ISHD84 AMDN,ISGD84 AMDN
H443,Waltrop-Abdinghof,13696,MODES III S,01-Dec-07,51.596620,7.404870,60.0,3,3,,3,,,ISMD34 AMDS,ISID34 AMDS,ISND34 AMDS,ISXD34 AMDS,ISAD34 AMDS,ISHD34 AMDS,ISGD34 AMDS
H450,Fröndenberg-Hohenheide,6276,MODES III N,01-Nov-04,51.489482,7.781306,235.0,2,2,,,,,ISMD84 AMDN,ISID84 AMDN,ISND84 AMDN,ISXD84 AMDN,ISAD84 AMDN,ISHD84 AMDN,ISGD84 AMDN
H460,"Sassendorf, Bad-Beusingsen",4400,MODES III N,01-Aug-04,51.543948,8.180815,171.0,5,5,,,,,ISMD84 AMDN,ISID84 AMDN,ISND84 AMDN,ISXD84 AMDN,ISAD84 AMDN,ISHD84 AMDN,ISGD84 AMDN
H475,Rüthen,4313,MODES III N,01-Oct-04,51.496642,8.434191,370.0,2,2,,,,,ISMD84 AMDN,ISID84 AMDN,ISND84 AMDN,ISXD84 AMDN,ISAD84 AMDN,ISHD84 AMDN,ISGD84 AMDN
H477,Wünnenberg-Eilern,5699,AMDA III / N,01-Nov-04,51.542692,8.778413,312.0,2,2,,,,,ISMD84 AMDN,ISID84 AMDN,ISND84 AMDN,ISXD84 AMDN,ISAD84 AMDN,ISHD84 AMDN,ISGD84 AMDN
H492,Borgentreich,613,AMDA III / N,01-Nov-04,51.567659,9.232377,206.0,1,1,,,,,ISMD84 AMDN,ISID84 AMDN,ISND84 AMDN,ISXD84 AMDN,ISAD84 AMDN,ISHD84 AMDN,ISGD84 AMDN
H512,Nettetal-Hülst,7344,AMDA III / N,01-Jun-06,51.299239,6.201260,45.0,1,1,,,,,ISMD84 AMDN,ISID84 AMDN,ISND84 AMDN,ISXD84 AMDN,ISAD84 AMDN,ISHD84 AMDN,ISGD84 AMDN
H522,Tönisvorst,5064,MODES III S,01-Dec-04,51.289722,6.443651,37.0,3,3,,3,,,ISMD34 AMDS,ISID34 AMDS,ISND34 AMDS,ISXD34 AMDS,ISAD34 AMDS,ISHD34 AMDS,ISGD34 AMDS
H542,Gevelsberg-Oberbröking,13700,MODES III S,01-May-08,51.332896,7.341099,205.0,2,2,,2,,,ISMD34 AMDS,ISID34 AMDS,ISND34 AMDS,ISXD34 AMDS,ISAD34 AMDS,ISHD34 AMDS,ISGD34 AMDS
H543,Breckerfeld-Wengeberg,6313,AMDA III / N,01-Dec-04,51.248783,7.467166,440.0,2,2,,,,,ISMD84 AMDN,ISID84 AMDN,ISND84 AMDN,ISXD84 AMDN,ISAD84 AMDN,ISHD84 AMDN,ISGD84 AMDN
H547,Wuppertal-Buchenhofen,5717,MODES III S,01-Sep-06,51.225598,7.105176,134.0,4,4,,4,,,ISMD34 AMDS,ISID34 AMDS,ISND34 AMDS,ISXD34 AMDS,ISAD34 AMDS,ISHD34 AMDS,ISGD34 AMDS
H548,Wuppertal,15200,MODES III W,23-May-13,51.253105,7.215618,327.0,,,2,,,,ISMD74 AMDW,ISID74 AMDW,ISND74 AMDW,ISXD74 AMDW,ISAD74 AMDW,ISHD74 AMDW,ISGD74 AMDW
H568,Neuenrade-Blintrop,3499,AMDA III / N,01-Jul-06,51.291467,7.853030,292.0,1,1,,,,,ISMD84 AMDN,ISID84 AMDN,ISND84 AMDN,ISXD84 AMDN,ISAD84 AMDN,ISHD84 AMDN,ISGD84 AMDN
H572,Arnsberg-Neheim,7330,MODES III S,01-Oct-05,51.463383,7.978002,159.0,2,,,2,2,2,ISMD34 AMDS,ISID34 AMDS,ISND34 AMDS,ISXD34 AMDS,ISAD34 AMDS,ISHD34 AMDS,ISGD34 AMDS
H573,Arnsberg-Müschede,13952,MODES III W,01-Feb-09,51.408855,8.009389,277.6,,,4,,,,ISMD74 AMDW,ISID74 AMDW,ISND74 AMDW,ISXD74 AMDW,ISAD74 AMDW,ISHD74 AMDW,ISGD74 AMDW
H579,Eslohe,1300,MODES III S,01-Jun-04,51.253990,8.156530,351.0,4,4,,4,,,ISMD34 AMDS,ISID34 AMDS,ISND34 AMDS,ISXD34 AMDS,ISAD34 AMDS,ISHD34 AMDS,ISGD34 AMDS
H581,Warstein-Hirschberg,5360,AMDA III / N,01-Jul-07,51.431882,8.266476,331.0,1,1,,,,,ISMD84 AMDN,ISID84 AMDN,ISND84 AMDN,ISXD84 AMDN,ISAD84 AMDN,ISHD84 AMDN,ISGD84 AMDN
H590,Haaren,15120,AMDA III / W,01-Mar-12,51.557178,8.701925,378.5,,,1,,,,ISMD74 AMDW,ISID74 AMDW,ISND74 AMDW,ISXD74 AMDW,ISAD74 AMDW,ISHD76 AMDW,ISGD76 AMDW
H591,Brilon-Thülen,6264,AMDA III / S,01-Jun-04,51.413998,8.649983,457.0,2,2,,2,2,,ISMD34 AMDS,ISID34 AMDS,ISND34 AMDS,ISXD34 AMDS,ISAD34 AMDS,ISHD34 AMDS,ISGD34 AMDS
H606,Heinsberg-Schleiden,2110,MODES III S,01-Jan-03,51.041072,6.104239,57.0,3,3,,3,,,ISMD34 AMDS,ISID34 AMDS,ISND34 AMDS,ISXD34 AMDS,ISAD34 AMDS,ISHD34 AMDS,ISGD34 AMDS
H612,Reichshof-Eckenhagen,4127,AMDA III / S,01-Jan-05,50.990636,7.695847,350.0,2,2,,2,2,2,ISMD34 AMDS,ISID34 AMDS,ISND34 AMDS,ISXD34 AMDS,ISAD34 AMDS,ISHD34 AMDS,ISGD34 AMDS
H635,Dormagen-Zons,1024,AMDA III / N,01-Aug-06,51.115746,6.850995,37.0,1,1,,,,,ISMD84 AMDN,ISID84 AMDN,ISND84 AMDN,ISXD84 AMDN,ISAD84 AMDN,ISHD84 AMDN,ISGD84 AMDN
H641,Solingen-Hohenscheid,4741,MODES III N,01-Dec-04,51.140245,7.092982,154.0,2,2,,,,,ISMD84 AMDN,ISID84 AMDN,ISND84 AMDN,ISXD84 AMDN,ISAD84 AMDN,ISHD84 AMDN,ISGD84 AMDN
H655,Wipperfürth-Gardeweg,5619,AMDA III / N,01-Dec-04,51.163643,7.423430,360.0,1,1,,,,,ISMD84 AMDN,ISID84 AMDN,ISND84 AMDN,ISXD84 AMDN,ISAD84 AMDN,ISHD84 AMDN,ISGD84 AMDN
H658,Meinerzhagen-Redlendorf,13713,AMDA III / S,01-Nov-07,51.089856,7.628970,380.0,1,1,,1,,,ISMD34 AMDS,ISID34 AMDS,ISND34 AMDS,ISXD34 AMDS,ISAD34 AMDS,ISHD34 AMDS,ISGD34 AMDS
H669,Attendorn-Neulisternohl,216,AMDA III / N,01-Oct-04,51.114277,7.880705,298.0,1,1,,,,,ISMD84 AMDN,ISID84 AMDN,ISND84 AMDN,ISXD84 AMDN,ISAD84 AMDN,ISHD84 AMDN,ISGD84 AMDN
H678,Lennestadt-Theten,2947,AMDA III / S,01-Oct-06,51.133253,8.034831,286.0,1,1,,1,1,1,ISMD34 AMDS,ISID34 AMDS,ISND34 AMDS,ISXD34 AMDS,ISAD34 AMDS,ISHD34 AMDS,ISGD34 AMDS
H681,Schmallenberg-Sellinghausen,4488,AMDA III / N,01-Aug-06,51.212731,8.267235,443.0,1,,,,,,ISMD84 AMDN,ISID84 AMDN,ISND84 AMDN,ISXD84 AMDN,ISAD84 AMDN,ISHD84 AMDN,ISGD84 AMDN
H695,Medebach-Berge,3215,AMDA III / N,01-Jun-07,51.168307,8.712524,375.0,1,1,,,,,ISMD84 AMDN,ISID84 AMDN,ISND84 AMDN,ISXD84 AMDN,ISAD84 AMDN,ISHD84 AMDN,ISGD84 AMDN
H718,Jülich (Kläranlage),2473,MODES III N,01-Dec-04,50.931629,6.343119,76.0,2,2,,,,,ISMD84 AMDN,ISID84 AMDN,ISND84 AMDN,ISXD84 AMDN,ISAD84 AMDN,ISHD84 AMDN,ISGD84 AMDN
H721,Bedburg-Weiler Hohenholz,7378,AMDA III / N,01-Jul-06,51.014895,6.517327,101.0,1,1,,,,,ISMD84 AMDN,ISID84 AMDN,ISND84 AMDN,ISXD84 AMDN,ISAD84 AMDN,ISHD84 AMDN,ISGD84 AMDN
H744,Köln-Stammheim,2968,AMDA III / S,01-Dec-08,50.989428,6.977688,43.0,2,,,2,,,ISMD34 AMDS,ISID34 AMDS,ISND34 AMDS,ISXD34 AMDS,ISAD34 AMDS,ISHD34 AMDS,ISGD34 AMDS
H755,Overath-Böke,13671,AMDA III / N,14-Nov-07,50.965511,7.275302,221.0,1,,,,,,ISMD84 AMDN,ISID84 AMDN,ISND84 AMDN,ISXD84 AMDN,ISAD84 AMDN,ISHD84 AMDN,ISGD84 AMDN
H768,Mönchengladbach-Hilderath,3321,AMDA III / S,01-Jul-05,51.131259,6.360864,76.5,2,2,2,,2,,ISMD39 AMDS,ISID39 AMDS,ISND39 AMDS,ISXD39 AMDS,ISAD39 AMDS,ISHD39 AMDS,ISGD39 AMDS
H777,Wenden-Dörnscheid,5468,AMDA III / N,01-Jul-06,50.937708,7.847479,418.0,1,,,,,,ISMD84 AMDN,ISID84 AMDN,ISND84 AMDN,ISXD84 AMDN,ISAD84 AMDN,ISHD84 AMDN,ISGD84 AMDN
H791,"Berleburg, Bad-Arfeld",389,MODES III N,01-Nov-09,51.014835,8.431837,436.0,2,2,,,,,ISMD84 AMDN,ISID84 AMDN,ISND84 AMDN,ISXD84 AMDN,ISAD84 AMDN,ISHD84 AMDN,ISGD84 AMDN
H795,"Berleburg, Bad-Stünzel",390,MODES III S,01-Jul-04,50.983713,8.368331,610.0,2,2,,2,,,ISMD34 AMDS,ISID34 AMDS,ISND34 AMDS,ISXD34 AMDS,ISAD34 AMDS,ISHD34 AMDS,ISGD34 AMDS
H827,Nideggen-Schmidt,3591,AMDA III / S,01-Jun-04,50.674261,6.423998,350.0,4,4,,4,,,ISMD34 AMDS,ISID34 AMDS,ISND34 AMDS,ISXD34 AMDS,ISAD34 AMDS,ISHD34 AMDS,ISGD34 AMDS
H862,Neunkirchen-Seelscheid-Krawinkel,3540,AMDA III / S,01-Nov-04,50.844636,7.371973,195.0,3,3,,3,3,3,ISMD34 AMDS,ISID34 AMDS,ISND34 AMDS,ISXD34 AMDS,ISAD34 AMDS,ISHD34 AMDS,ISGD34 AMDS
H884,Birkelbach,7416,AMDA III / W,11-Sep-08,51.011235,8.273261,540.5,,,2,,2,,ISMD74 AMDW,ISID74 AMDW,ISND74 AMDW,ISXD74 AMDW,ISAD74 AMDW,ISHD74 AMDW,ISGD74 AMDW
H889,Burbach-Würgendorf,796,MODES III N,01-Nov-04,50.755625,8.125709,413.0,2,2,,,,,ISMD84 AMDN,ISID84 AMDN,ISND84 AMDN,ISXD84 AMDN,ISAD84 AMDN,ISHD84 AMDN,ISGD84 AMDN
H908,Monschau-Kalterherberg,3339,AMDA III / N,01-Sep-06,50.520189,6.208270,535.0,1,1,,,,,ISMD84 AMDN,ISID84 AMDN,ISND84 AMDN,ISXD84 AMDN,ISAD84 AMDN,ISHD84 AMDN,ISGD84 AMDN
H932,Weilerswist-Lommersum,1327,AMDA III / S,01-Aug-04,50.711886,6.790489,147.0,1,1,,1,1,,ISMD34 AMDS,ISID34 AMDS,ISND34 AMDS,ISXD34 AMDS,ISAD34 AMDS,ISHD34 AMDS,ISGD34 AMDS
H981,Kall-Sistig,2497,MODES III S,01-Aug-04,50.501410,6.526408,505.0,4,4,4,4,4,4,ISMD39 AMDS,ISID39 AMDS,ISND39 AMDS,ISXD39 AMDS,ISAD39 AMDS,ISHD39 AMDS,ISGD39 AMDS
J702,Perl-Nennig,3904,AMDA III / S,27-Feb-12,49.535353,6.378874,152.0,1,1,,1,1,1,ISMD36 AMDS,ISID36 AMDS,ISND36 AMDS,ISXD36 AMDS,ISAD36 AMDS,ISHD36 AMDS,ISGD36 AMDS
J709,Merzig,3263,AMDA III / N,01-Sep-04,49.456620,6.626599,171.0,1,1,,,,,ISMD86 AMDN,ISID86 AMDN,ISND86 AMDN,ISXD86 AMDN,ISAD86 AMDN,ISHD86 AMDN,ISGD86 AMDN
J728,Weiskirchen/Saar,5433,AMDA III / S,01-Sep-04,49.553365,6.811951,380.0,1,1,,1,1,,ISMD36 AMDS,ISID36 AMDS,ISND36 AMDS,ISXD36 AMDS,ISAD36 AMDS,ISHD36 AMDS,ISGD36 AMDS
J731,Nohfelden-Gonnesweiler,3625,AMDA III / N,01-Sep-04,49.556788,7.071557,402.5,3,3,,,,,ISMD86 AMDN,ISID86 AMDN,ISND86 AMDN,ISXD86 AMDN,ISAD86 AMDN,ISHD86 AMDN,ISGD86 AMDN
J812,Schmelz-Hüttersdorf,4490,MODES III N,01-Jul-04,49.414918,6.836007,223.0,3,3,,,,,ISMD86 AMDN,ISID86 AMDN,ISND86 AMDN,ISXD86 AMDN,ISAD86 AMDN,ISHD86 AMDN,ISGD86 AMDN
J815,Neunkirchen-Wellesweiler,3545,AMDA III / S,01-Mar-05,49.343983,7.229738,236.0,1,1,,1,,,ISMD36 AMDS,ISID36 AMDS,ISND36 AMDS,ISXD36 AMDS,ISAD36 AMDS,ISHD36 AMDS,ISGD36 AMDS
J846,Homburg/Saar,2331,AMDA III / N,01-Aug-04,49.327792,7.353336,235.0,1,1,,,,,ISMD86 AMDN,ISID86 AMDN,ISND86 AMDN,ISXD86 AMDN,ISAD86 AMDN,ISHD86 AMDN,ISGD86 AMDN
J908,Saarbrücken-Burbach,6217,MODES III S,01-Oct-04,49.240557,6.935134,190.0,2,2,,2,,,ISMD36 AMDS,ISID36 AMDS,ISND36 AMDS,ISXD36 AMDS,ISAD36 AMDS,ISHD36 AMDS,ISGD36 AMDS
K017,Hilgenroth,2211,AMDA III / S,01-Oct-04,50.737065,7.652755,295.0,1,1,,1,,,ISMD36 AMDS,ISID36 AMDS,ISND36 AMDS,ISXD36 AMDS,ISAD36 AMDS,ISHD36 AMDS,ISGD36 AMDS
K026,Wallmenroth,7499,AMDA III / N,01-Jul-07,50.789312,7.827955,172.0,1,1,,,,,ISMD86 AMDN,ISID86 AMDN,ISND86 AMDN,ISXD86 AMDN,ISAD86 AMDN,ISHD86 AMDN,ISGD86 AMDN
K038,"Neuenahr, Bad-Ahrweiler",3490,AMDA III / S,01-Sep-04,50.534561,7.085337,111.0,2,2,,2,2,2,ISMD36 AMDS,ISID36 AMDS,ISND36 AMDS,ISXD36 AMDS,ISAD36 AMDS,ISHD36 AMDS,ISGD36 AMDS
K057,Hümmerich,2362,MODES III S,01-Aug-04,50.565053,7.484345,328.0,2,2,,2,,,ISMD36 AMDS,ISID36 AMDS,ISND36 AMDS,ISXD36 AMDS,ISAD36 AMDS,ISHD36 AMDS,ISGD36 AMDS
K158,Neuwied-Feldkirchen-Hüllenberg,15044,AMDA III / W,01-Oct-11,50.451705,7.405769,199.2,,,1,,,,ISMD76 AMDW,ISID76 AMDW,ISND76 AMDW,ISXD76 AMDW,ISAD76 AMDW,ISHD76 AMDW,ISGD76 AMDW
K210,Schneifelforsthaus,4508,AMDA III / S,01-Aug-04,50.296848,6.419387,649.0,4,4,,4,,,ISMD36 AMDS,ISID36 AMDS,ISND36 AMDS,ISXD36 AMDS,ISAD36 AMDS,ISHD36 AMDS,ISGD36 AMDS
K212,Roth bei Prüm,4279,AMDA III / W,30-Sep-08,50.304613,6.386244,593.0,,,2,,,,ISMD76 AMDW,ISID76 AMDW,ISND76 AMDW,ISXD76 AMDW,ISAD76 AMDW,ISHD76 AMDW,ISGD76 AMDW
K219,Lissendorf,2213,AMDA III / N,01-Nov-02,50.310518,6.623578,407.0,1,1,,,,,ISMD86 AMDN,ISID86 AMDN,ISND86 AMDN,ISXD86 AMDN,ISAD86 AMDN,ISHD86 AMDN,ISGD86 AMDN
K230,Rodder,4219,AMDA III / N,01-Oct-04,50.396548,6.856804,512.0,1,1,,,,,ISMD86 AMDN,ISID86 AMDN,ISND86 AMDN,ISXD86 AMDN,ISAD86 AMDN,ISHD86 AMDN,ISGD86 AMDN
K282,Montabaur,3340,AMDA III / S,01-May-05,50.438264,7.806121,265.0,1,1,,1,,1,ISMD36 AMDS,ISID36 AMDS,ISND36 AMDS,ISXD36 AMDS,ISAD36 AMDS,ISHD36 AMDS,ISGD36 AMDS
K295,Holzheim bei Diez,978,AMDA III / N,01-Feb-05,50.357409,8.048498,155.0,3,3,,,,,ISMD86 AMDN,ISID86 AMDN,ISND86 AMDN,ISXD86 AMDN,ISAD86 AMDN,ISHD86 AMDN,ISGD86 AMDN
K300,Winterspelt,5616,MODES III N,01-Aug-04,50.228181,6.207111,426.0,2,2,,,,,ISMD86 AMDN,ISID86 AMDN,ISND86 AMDN,ISXD86 AMDN,ISAD86 AMDN,ISHD86 AMDN,ISGD86 AMDN
K308,Lauperath-Scheidchen,200,AMDA III / N,01-Dec-04,50.084966,6.316098,517.0,1,1,,,,,ISMD86 AMDN,ISID86 AMDN,ISND86 AMDN,ISXD86 AMDN,ISAD86 AMDN,ISHD86 AMDN,ISGD86 AMDN
K310,Prüm-Watzerath,4017,AMDA III / N,01-Nov-02,50.180668,6.350901,386.0,2,2,,,,,ISMD86 AMDN,ISID86 AMDN,ISND86 AMDN,ISXD86 AMDN,ISAD86 AMDN,ISHD86 AMDN,ISGD86 AMDN
K318,Densborn,942,AMDA III / N,01-Nov-04,50.122010,6.599032,308.0,1,1,,,,,ISMD86 AMDN,ISID86 AMDN,ISND86 AMDN,ISXD86 AMDN,ISAD86 AMDN,ISHD86 AMDN,ISGD86 AMDN
K326,Oberstadtfeld,3602,AMDA III / N,01-Oct-05,50.174888,6.770026,421.0,1,,,,,,ISMD86 AMDN,ISID86 AMDN,ISND86 AMDN,ISXD86 AMDN,ISAD86 AMDN,ISHD86 AMDN,ISGD86 AMDN
K354,Kail,723,AMDA III / N,01-Dec-04,50.184128,7.240018,290.0,1,1,,,,,ISMD86 AMDN,ISID86 AMDN,ISND86 AMDN,ISXD86 AMDN,ISAD86 AMDN,ISHD86 AMDN,ISGD86 AMDN
K380,Oberbachheim,1598,AMDA III / N,01-Dec-05,50.248002,7.745633,328.0,2,2,,,,,ISMD86 AMDN,ISID86 AMDN,ISND86 AMDN,ISXD86 AMDN,ISAD86 AMDN,ISHD86 AMDN,ISGD86 AMDN
K386,Nastätten,6186,AMDA III / S,01-Aug-04,50.198862,7.865117,268.0,1,1,,1,,,ISMD36 AMDS,ISID36 AMDS,ISND36 AMDS,ISXD36 AMDS,ISAD36 AMDS,ISHD36 AMDS,ISGD36 AMDS
K419,Olsdorf,1964,AMDA III / S,01-May-05,49.944479,6.382110,328.0,3,,,3,,,ISMD36 AMDS,ISID36 AMDS,ISND36 AMDS,ISXD36 AMDS,ISAD36 AMDS,ISHD36 AMDS,ISGD36 AMDS
K440,Manderscheid-Sonnenhof,3155,MODES III S,12-Jun-03,50.101542,6.800909,413.0,5,5,,5,5,5,ISMD36 AMDS,ISID36 AMDS,ISND36 AMDS,ISXD36 AMDS,ISAD36 AMDS,ISHD36 AMDS,ISGD36 AMDS
K446,Wittlich,5635,AMDA III / N,01-Oct-04,49.961731,6.928746,147.0,1,1,,,,,ISMD86 AMDN,ISID86 AMDN,ISND86 AMDN,ISXD86 AMDN,ISAD86 AMDN,ISHD86 AMDN,ISGD86 AMDN
K463,Blankenrath,535,AMDA III / S,01-Jun-04,50.037229,7.307861,417.0,1,1,,1,1,1,ISMD36 AMDS,ISID36 AMDS,ISND36 AMDS,ISXD36 AMDS,ISAD36 AMDS,ISHD36 AMDS,ISGD36 AMDS
K471,Simmern-Wahlbach,4709,MODES III S,01-Nov-11,49.999590,7.598120,445.0,3,3,,3,,,ISMD36 AMDS,ISID36 AMDS,ISND36 AMDS,ISXD36 AMDS,ISAD36 AMDS,ISHD36 AMDS,ISGD36 AMDS
K509,Newel,3584,MODES III N,01-Jul-04,49.813467,6.585784,365.0,2,2,,,,,ISMD86 AMDN,ISID86 AMDN,ISND86 AMDN,ISXD86 AMDN,ISAD86 AMDN,ISHD86 AMDN,ISGD86 AMDN
K515,Zemmer (Forsthaus Mülchen),5758,AMDA III / N,01-Oct-04,49.870885,6.707361,293.0,3,3,,,,,ISMD86 AMDN,ISID86 AMDN,ISND86 AMDN,ISXD86 AMDN,ISAD86 AMDN,ISHD86 AMDN,ISGD86 AMDN
K568,"Kreuznach, Bad",4301,AMDA III / S,01-Mar-05,49.850173,7.871018,102.0,1,1,,1,1,1,ISMD36 AMDS,ISID36 AMDS,ISND36 AMDS,ISXD36 AMDS,ISAD36 AMDS,ISHD36 AMDS,ISGD36 AMDS
K584,Mainz-Lerchenberg (ZDF),3137,AMDA III / S,12-Mar-08,49.965563,8.213852,195.0,2,,,2,,,ISMD36 AMDS,ISID36 AMDS,ISND36 AMDS,ISXD36 AMDS,ISAD36 AMDS,ISHD36 AMDS,ISGD36 AMDS
K589,Hahnheim,6100,MODES III N,01-Sep-04,49.862580,8.231085,120.0,2,2,,,,,ISMD86 AMDN,ISID86 AMDN,ISND86 AMDN,ISXD86 AMDN,ISAD86 AMDN,ISHD86 AMDN,ISGD86 AMDN
K611,Trier-Zewen,5099,AMDA III / S,10-Apr-08,49.732632,6.613147,131.5,1,,,1,,1,ISMD36 AMDS,ISID36 AMDS,ISND36 AMDS,ISXD36 AMDS,ISAD36 AMDS,ISHD36 AMDS,ISGD36 AMDS
K650,Kirn,2595,AMDA III / N,01-Jul-04,49.789016,7.485275,181.0,1,1,,,,,ISMD86 AMDN,ISID86 AMDN,ISND86 AMDN,ISXD86 AMDN,ISAD86 AMDN,ISHD86 AMDN,ISGD86 AMDN
K666,Bayerfeld-Steckweiler -Schmalfelderhof,316,AMDA III / N,01-Nov-04,49.695666,7.838697,310.0,2,2,,,,,ISMD86 AMDN,ISID86 AMDN,ISND86 AMDN,ISXD86 AMDN,ISAD86 AMDN,ISHD86 AMDN,ISGD86 AMDN
K685,Alzey,150,AMDA III / S,01-Jul-05,49.727300,8.116356,215.0,2,2,,2,2,2,ISMD36 AMDS,ISID36 AMDS,ISND36 AMDS,ISXD36 AMDS,ISAD36 AMDS,ISHD36 AMDS,ISGD36 AMDS
K699,Worms,5692,MODES III S,01-Sep-04,49.605078,8.365906,88.0,2,2,,2,,,ISMD36 AMDS,ISID36 AMDS,ISND36 AMDS,ISXD36 AMDS,ISAD36 AMDS,ISHD36 AMDS,ISGD36 AMDS
K706,Perl-Sinz-Renglischberg,3905,AMDA III / W,01-Dec-11,49.521403,6.447635,407.4,,,3,,,,ISMD76 AMDW,ISID76 AMDW,ISND76 AMDW,ISXD76 AMDW,ISAD76 AMDW,ISHD76 AMDW,ISGD76 AMDW
K747,Henschtal,1650,AMDA III / N,01-Nov-04,49.464808,7.411082,250.0,1,1,,,,,ISMD86 AMDN,ISID86 AMDN,ISND86 AMDN,ISXD86 AMDN,ISAD86 AMDN,ISHD86 AMDN,ISGD86 AMDN
K761,Dörrmoschel-Felsbergerhof,1011,MODES III W,01-Nov-08,49.601695,7.741331,442.0,,,6,,,,ISMD76 AMDW,ISID76 AMDW,ISND76 AMDW,ISXD76 AMDW,ISAD76 AMDW,ISHD76 AMDW,ISGD76 AMDW
K762,Ruppertsecken,4323,AMDA III / S,01-Mar-05,49.646838,7.883741,461.0,3,3,,3,,,ISMD36 AMDS,ISID36 AMDS,ISND36 AMDS,ISXD36 AMDS,ISAD36 AMDS,ISHD36 AMDS,ISGD36 AMDS
K784,Grünstadt,1870,MODES III N,01-Nov-02,49.566492,8.177970,160.0,2,2,,,,,ISMD86 AMDN,ISID86 AMDN,ISND86 AMDN,ISXD86 AMDN,ISAD86 AMDN,ISHD86 AMDN,ISGD86 AMDN
K863,Kaiserslautern,2486,AMDA III / S,01-Mar-05,49.426213,7.755714,271.0,1,1,,1,,,ISMD36 AMDS,ISID36 AMDS,ISND36 AMDS,ISXD36 AMDS,ISAD36 AMDS,ISHD36 AMDS,ISGD36 AMDS
K866,Trippstadt-Neuhof,5103,AMDA III / N,01-Aug-10,49.354424,7.794751,348.0,2,,,,,,ISMD86 AMDN,ISID86 AMDN,ISND86 AMDN,ISXD86 AMDN,ISAD86 AMDN,ISHD86 AMDN,ISGD86 AMDN
K881,"Dürkheim, Bad",1072,AMDA III / S,01-Jun-04,49.471913,8.192896,107.0,1,1,,1,,1,ISMD36 AMDS,ISID36 AMDS,ISND36 AMDS,ISXD36 AMDS,ISAD36 AMDS,ISHD36 AMDS,ISGD36 AMDS
K925,Pirmasens,3939,AMDA III / S,01-Oct-04,49.191191,7.587900,385.0,2,2,,2,,,ISMD36 AMDS,ISID36 AMDS,ISND36 AMDS,ISXD36 AMDS,ISAD36 AMDS,ISHD36 AMDS,ISGD36 AMDS
K969,Rülzheim,4310,MODES III N,01-Jul-04,49.160880,8.300934,105.0,3,3,,,,,ISMD86 AMDN,ISID86 AMDN,ISND86 AMDN,ISXD86 AMDN,ISAD86 AMDN,ISHD86 AMDN,ISGD86 AMDN
K988,"Bergzabern, Bad",377,AMDA III / S,01-Oct-04,49.107025,7.996749,210.0,1,1,,1,1,1,ISMD36 AMDS,ISID36 AMDS,ISND36 AMDS,ISXD36 AMDS,ISAD36 AMDS,ISHD36 AMDS,ISGD36 AMDS
L021,Trendelburg,5086,MODES III N,21-May-10,51.577602,9.433453,133.0,2,2,,,,,ISMD86 AMDN,ISID86 AMDN,ISND86 AMDN,ISXD86 AMDN,ISAD86 AMDN,ISHD86 AMDN,ISGD86 AMDN
L031,Wahlsburg-Lippoldsberg,5279,AMDA III / S,01-Sep-04,51.619410,9.574910,176.0,1,1,,1,,1,ISMD36 AMDS,ISID36 AMDS,ISND36 AMDS,ISXD36 AMDS,ISAD36 AMDS,ISHD36 AMDS,ISGD36 AMDS
L052,Diemelstadt-Rhoden,961,MODES III N,01-Jul-04,51.474284,9.003947,258.0,4,4,,,,,ISMD86 AMDN,ISID86 AMDN,ISND86 AMDN,ISXD86 AMDN,ISAD86 AMDN,ISHD86 AMDN,ISGD86 AMDN
L071,Liebenau-Haueda,2988,AMDA III / N,01-Jul-04,51.488084,9.250009,162.0,1,1,,,,,ISMD86 AMDN,ISID86 AMDN,ISND86 AMDN,ISXD86 AMDN,ISAD86 AMDN,ISHD86 AMDN,ISGD86 AMDN
L101,Willingen/Hochsauerland,6303,AMDA III / N,01-Nov-02,51.291509,8.598203,584.0,1,1,,,,,ISMD86 AMDN,ISID86 AMDN,ISND86 AMDN,ISXD86 AMDN,ISAD86 AMDN,ISHD86 AMDN,ISGD86 AMDN
L113,Korbach-Rhena,2718,AMDA III / N,01-Nov-02,51.288015,8.792783,458.0,1,1,,,,,ISMD86 AMDN,ISID86 AMDN,ISND86 AMDN,ISXD86 AMDN,ISAD86 AMDN,ISHD86 AMDN,ISGD86 AMDN
L121,Twistetal-Mühlhausen,5133,MODES III S,01-Sep-04,51.334400,8.913191,295.0,2,2,,2,,,ISMD36 AMDS,ISID36 AMDS,ISND36 AMDS,ISXD36 AMDS,ISAD36 AMDS,ISHD36 AMDS,ISGD36 AMDS
L125,Waldeck-Alraft,5297,AMDA III / N,01-Oct-04,51.242800,8.971400,300.0,2,2,,,,,ISMD86 AMDN,ISID86 AMDN,ISND86 AMDN,ISXD86 AMDN,ISAD86 AMDN,ISHD86 AMDN,ISGD86 AMDN
L130,"Arolsen-Landau, Bad",194,AMDA III / N,01-Feb-05,51.343117,9.076333,265.0,1,1,,,,,ISMD86 AMDN,ISID86 AMDN,ISND86 AMDN,ISXD86 AMDN,ISAD86 AMDN,ISHD86 AMDN,ISGD86 AMDN
L131,"Arolsen-Volkhardinghausen, Bad",197,MODES III W,01-Aug-08,51.321802,9.055840,365.0,,,3,,,,ISMD76 AMDW,ISID76 AMDW,ISND76 AMDW,ISXD76 AMDW,ISAD76 AMDW,ISHD76 AMDW,ISGD76 AMDW
L171,Witzenhausen-Ziegenhagen,5646,AMDA III / N,01-May-04,51.364490,9.749030,220.0,1,1,,,,,ISMD86 AMDN,ISID86 AMDN,ISND86 AMDN,ISXD86 AMDN,ISAD86 AMDN,ISHD86 AMDN,ISGD86 AMDN
L201,Battenberg-Hof Karlsburg,310,MODES III N,01-Nov-04,51.066152,8.537474,590.0,3,3,,,,,ISMD86 AMDN,ISID86 AMDN,ISND86 AMDN,ISXD86 AMDN,ISAD86 AMDN,ISHD86 AMDN,ISGD86 AMDN
L215,Frankenberg-Geismar,5851,MODES III W,01-Nov-08,51.080600,8.876900,391.5,,,2,,,,ISMD76 AMDW,ISID76 AMDW,ISND76 AMDW,ISXD76 AMDW,ISAD76 AMDW,ISHD76 AMDW,ISGD76 AMDW
L217,Burgwald-Bottendorf,817,AMDA III / S,08-Mar-10,51.030634,8.814579,293.0,1,1,,1,,,ISMD36 AMDS,ISID36 AMDS,ISND36 AMDS,ISXD36 AMDS,ISAD36 AMDS,ISHD36 AMDS,ISGD36 AMDS
L222,Vöhl-Buchenberg,5240,AMDA III / N,01-Jul-04,51.159820,8.873969,380.0,1,1,,,,,ISMD86 AMDN,ISID86 AMDN,ISND86 AMDN,ISXD86 AMDN,ISAD86 AMDN,ISHD86 AMDN,ISGD86 AMDN
L245,Wabern-Hebel,5263,AMDA III / N,01-Jul-04,51.067003,9.382119,203.0,1,1,,,,,ISMD86 AMDN,ISID86 AMDN,ISND86 AMDN,ISXD86 AMDN,ISAD86 AMDN,ISHD86 AMDN,ISGD86 AMDN
L271,Hessisch Lichtenau-Fürstenhagen,2184,AMDA III / N,01-Feb-05,51.214187,9.691902,340.0,1,1,,,,,ISMD86 AMDN,ISID86 AMDN,ISND86 AMDN,ISXD86 AMDN,ISAD86 AMDN,ISHD86 AMDN,ISGD86 AMDN
L286,Sontra,4763,AMDA III / S,01-Oct-04,51.060686,9.926618,265.0,1,1,,1,,,ISMD36 AMDS,ISID36 AMDS,ISND36 AMDS,ISXD36 AMDS,ISAD36 AMDS,ISHD36 AMDS,ISGD36 AMDS
L291,Eschwege,1297,MODES III S,01-Oct-04,51.204132,10.013767,156.0,4,4,,4,4,4,ISMD36 AMDS,ISID36 AMDS,ISND36 AMDS,ISXD36 AMDS,ISAD36 AMDS,ISHD36 AMDS,ISGD36 AMDS
L292,Eschwege-Eltmannshausen,13701,AMDA III / W,01-Sep-08,51.194520,9.988501,250.2,,,3,,,,ISMD76 AMDW,ISID76 AMDW,ISND76 AMDW,ISXD76 AMDW,ISAD76 AMDW,ISHD76 AMDW,ISGD76 AMDW
L299,Herleshausen-Archfeld,2152,AMDA III / N,19-Aug-10,51.042321,10.146898,380.0,1,1,,,,,ISMD86 AMDN,ISID86 AMDN,ISND86 AMDN,ISXD86 AMDN,ISAD86 AMDN,ISHD86 AMDN,ISGD86 AMDN
L300,Eschenburg-Eibelshausen,15490,MODES III N,01-Dec-16,50.805316,8.338183,298.0,1,1,,,,,ISMD86 AMDN,ISID86 AMDN,ISND86 AMDN,ISXD86 AMDN,ISAD86 AMDN,ISHD86 AMDN,ISGD86 AMDN
L312,Wetter/Hessen-Amönau,5524,MODES III N,06-Sep-06,50.908663,8.692898,227.0,2,2,,,,,ISMD86 AMDN,ISID86 AMDN,ISND86 AMDN,ISXD86 AMDN,ISAD86 AMDN,ISHD86 AMDN,ISGD86 AMDN
L319,"Cölbe, Kr. Marburg-Biedenkopf",3164,AMDA III / S,01-Jul-06,50.849212,8.774608,187.0,1,1,,1,,,ISMD36 AMDS,ISID36 AMDS,ISND36 AMDS,ISXD36 AMDS,ISAD36 AMDS,ISHD36 AMDS,ISGD36 AMDS
L340,Gilserberg-Moischeid,1645,AMDA III / S,01-May-04,50.965565,9.050014,340.0,2,2,,2,,,ISMD36 AMDS,ISID36 AMDS,ISND36 AMDS,ISXD36 AMDS,ISAD36 AMDS,ISHD36 AMDS,ISGD36 AMDS
L355,Neukirchen-Hauptschwenda,3527,MODES III S,01-May-04,50.892280,9.404980,500.0,2,2,,2,,,ISMD36 AMDS,ISID36 AMDS,ISND36 AMDS,ISXD36 AMDS,ISAD36 AMDS,ISHD36 AMDS,ISGD36 AMDS
L409,Driedorf,1055,AMDA III / N,01-Oct-04,50.631590,8.181266,482.0,2,2,,,,,ISMD86 AMDN,ISID86 AMDN,ISND86 AMDN,ISXD86 AMDN,ISAD86 AMDN,ISHD86 AMDN,ISGD86 AMDN
L411,Dillenburg,979,AMDA III / S,01-Sep-04,50.736371,8.267238,314.0,1,1,,1,1,1,ISMD36 AMDS,ISID36 AMDS,ISND36 AMDS,ISXD36 AMDS,ISAD36 AMDS,ISHD36 AMDS,ISGD36 AMDS
L442,Amöneburg-Rüdigheim,158,AMDA III / N,01-Jul-04,50.784026,8.954487,210.0,1,1,,,,,ISMD86 AMDN,ISID86 AMDN,ISND86 AMDN,ISXD86 AMDN,ISAD86 AMDN,ISHD86 AMDN,ISGD86 AMDN
L463,Alsfeld,90,MODES III W,11-Oct-07,50.755683,9.258325,305.0,,,2,,,,ISMD76 AMDW,ISID76 AMDW,ISND76 AMDW,ISXD76 AMDW,ISAD76 AMDW,ISHD76 AMDW,ISGD76 AMDW
L464,Alsfeld-Eifa,91,AMDA III / S,01-Sep-04,50.744591,9.344972,300.0,1,1,,1,,1,ISMD36 AMDS,ISID36 AMDS,ISND36 AMDS,ISXD36 AMDS,ISAD36 AMDS,ISHD36 AMDS,ISGD36 AMDS
L483,Haunetal-Wehrda,2066,AMDA III / N,01-Nov-02,50.738345,9.660793,257.0,2,2,,,,,ISMD86 AMDN,ISID86 AMDN,ISND86 AMDN,ISXD86 AMDN,ISAD86 AMDN,ISHD86 AMDN,ISGD86 AMDN
L505,Waldbrunn-Lahr,5294,AMDA III / N,01-Sep-05,50.512141,8.132635,280.0,1,1,,,,,ISMD86 AMDN,ISID86 AMDN,ISND86 AMDN,ISXD86 AMDN,ISAD86 AMDN,ISHD86 AMDN,ISGD86 AMDN
L511,Löhnberg-Obershausen,3042,AMDA III / S,01-Jun-08,50.561656,8.238629,230.0,1,1,,1,,,ISMD36 AMDS,ISID36 AMDS,ISND36 AMDS,ISXD36 AMDS,ISAD36 AMDS,ISHD36 AMDS,ISGD36 AMDS
L521,Aßlar Klein-Altenstädten,211,AMDA III / N,01-Nov-04,50.579959,8.468468,200.0,1,1,,,,,ISMD86 AMDN,ISID86 AMDN,ISND86 AMDN,ISXD86 AMDN,ISAD86 AMDN,ISHD86 AMDN,ISGD86 AMDN
L555,Schotten,4560,AMDA III / S,01-Feb-05,50.492508,9.122558,265.0,3,3,,3,3,,ISMD36 AMDS,ISID36 AMDS,ISND36 AMDS,ISXD36 AMDS,ISAD36 AMDS,ISHD36 AMDS,ISGD36 AMDS
L561,Lautertal-Hörgenau,2897,AMDA III / W,01-Nov-08,50.580797,9.285740,522.0,,,1,,,,ISMD76 AMDW,ISID76 AMDW,ISND76 AMDW,ISXD76 AMDW,ISAD76 AMDW,ISHD76 AMDW,ISGD76 AMDW
L582,Petersberg-Marbach,3911,AMDA III / N,01-Jul-04,50.617494,9.724999,305.0,1,1,,,,,ISMD86 AMDN,ISID86 AMDN,ISND86 AMDN,ISXD86 AMDN,ISAD86 AMDN,ISHD86 AMDN,ISGD86 AMDN
L585,Fulda-Horas,1526,MODES III S,01-Nov-04,50.566806,9.653250,242.0,2,2,,2,,2,ISMD36 AMDS,ISID36 AMDS,ISND36 AMDS,ISXD36 AMDS,ISAD36 AMDS,ISHD36 AMDS,ISGD36 AMDS
L592,Tann/Rhön,4978,AMDA III / S,01-Nov-02,50.639028,10.022846,395.0,2,2,,2,,,ISMD36 AMDS,ISID36 AMDS,ISND36 AMDS,ISXD36 AMDS,ISAD36 AMDS,ISHD36 AMDS,ISGD36 AMDS
L602,Runkel-Ennerich,6344,MODES III S,01-Dec-04,50.393972,8.142276,168.0,2,2,2,2,2,2,ISMD39 AMDS,ISID39 AMDS,ISND39 AMDS,ISXD39 AMDS,ISAD39 AMDS,ISHD39 AMDS,ISGD39 AMDS
L612,Weilmünster,5416,MODES III N,01-Aug-10,50.428377,8.380557,183.0,2,2,,,,,ISMD86 AMDN,ISID86 AMDN,ISND86 AMDN,ISXD86 AMDN,ISAD86 AMDN,ISHD86 AMDN,ISGD86 AMDN
L617,"Camberg, Bad",837,MODES III N,01-Jul-04,50.286318,8.294862,244.0,2,2,,,,,ISMD86 AMDN,ISID86 AMDN,ISND86 AMDN,ISXD86 AMDN,ISAD86 AMDN,ISHD86 AMDN,ISGD86 AMDN
L631,Münzenberg-Gambach,3413,MODES III N,01-Jul-04,50.452232,8.731695,155.0,2,2,,,,,ISMD86 AMDN,ISID86 AMDN,ISND86 AMDN,ISXD86 AMDN,ISAD86 AMDN,ISHD86 AMDN,ISGD86 AMDN
L635,"Nauheim, Bad",3442,MODES III S,01-Oct-04,50.357372,8.750637,148.5,3,,,3,,,ISMD36 AMDS,ISID36 AMDS,ISND36 AMDS,ISXD36 AMDS,ISAD36 AMDS,ISHD36 AMDS,ISGD36 AMDS
L652,Gedern-Schönhausen,1561,AMDA III / N,01-Dec-04,50.404029,9.207518,407.0,1,1,,,,,ISMD86 AMDN,ISID86 AMDN,ISND86 AMDN,ISXD86 AMDN,ISAD86 AMDN,ISHD86 AMDN,ISGD86 AMDN
L678,Schlüchtern-Herolz,4480,AMDA III / S,01-Sep-04,50.344653,9.553369,230.0,1,1,,1,,,ISMD36 AMDS,ISID36 AMDS,ISND36 AMDS,ISXD36 AMDS,ISAD36 AMDS,ISHD36 AMDS,ISGD36 AMDS
L685,Grebenstein,1750,MODES III N,01-Sep-04,51.449789,9.413085,190.0,2,2,,,,,ISMD86 AMDN,ISID86 AMDN,ISND86 AMDN,ISXD86 AMDN,ISAD86 AMDN,ISHD86 AMDN,ISGD86 AMDN
L714,Hohenstein-Breithardt,2293,MODES III N,01-Dec-04,50.191928,8.087993,315.0,2,,,,,,ISMD86 AMDN,ISID86 AMDN,ISND86 AMDN,ISXD86 AMDN,ISAD86 AMDN,ISHD86 AMDN,ISGD86 AMDN
L722,Waldems-Reinborn,5300,AMDA III / S,01-Jul-04,50.259603,8.360676,380.0,1,1,,1,,,ISMD36 AMDS,ISID36 AMDS,ISND36 AMDS,ISXD36 AMDS,ISAD36 AMDS,ISHD36 AMDS,ISGD36 AMDS
L732,"Homburg, Bad (Filterwerk)",2329,MODES III N,01-Sep-04,50.244571,8.572503,255.0,2,2,,,,,ISMD86 AMDN,ISID86 AMDN,ISND86 AMDN,ISXD86 AMDN,ISAD86 AMDN,ISHD86 AMDN,ISGD86 AMDN
L744,"Vilbel, Bad-Dortelweil",5225,AMDA III / N,01-May-04,50.213490,8.745250,125.0,1,1,,,,,ISMD86 AMDN,ISID86 AMDN,ISND86 AMDN,ISXD86 AMDN,ISAD86 AMDN,ISHD86 AMDN,ISGD86 AMDN
L751,Nidderau-Erbstadt,3589,MODES III N,01-Jun-04,50.274060,8.865290,162.0,4,4,,,,,ISMD86 AMDN,ISID86 AMDN,ISND86 AMDN,ISXD86 AMDN,ISAD86 AMDN,ISHD86 AMDN,ISGD86 AMDN
L771,Gründau-Breitenborn,1863,AMDA III / S,01-Dec-07,50.266701,9.185383,258.0,2,2,,2,,2,ISMD36 AMDS,ISID36 AMDS,ISND36 AMDS,ISXD36 AMDS,ISAD36 AMDS,ISHD36 AMDS,ISGD36 AMDS
L773,Wächtersbach,479,MODES III N,01-Feb-05,50.243529,9.289306,138.0,3,3,,,,,ISMD86 AMDN,ISID86 AMDN,ISND86 AMDN,ISXD86 AMDN,ISAD86 AMDN,ISHD86 AMDN,ISGD86 AMDN
L781,"Soden,Bad-Salmünster (Kläranlage)",13900,AMDA III / S,10-Sep-08,50.268765,9.357955,145.0,,,1,,1,,ISMD76 AMDW,ISID76 AMDW,ISND76 AMDW,ISXD76 AMDW,ISAD76 AMDW,ISHD76 AMDW,ISGD76 AMDW
L803,Rüdesheim-Presberg,4308,AMDA III / N,24-Jul-02,50.051660,7.887550,403.0,2,2,,,,,ISMD86 AMDN,ISID86 AMDN,ISND86 AMDN,ISXD86 AMDN,ISAD86 AMDN,ISHD86 AMDN,ISGD86 AMDN
L819,Wiesbaden-Biebrich,5542,MODES III N,01-Jul-04,50.042119,8.233134,90.0,2,2,,,,,ISMD86 AMDN,ISID86 AMDN,ISND86 AMDN,ISXD86 AMDN,ISAD86 AMDN,ISHD86 AMDN,ISGD86 AMDN
L821,Wiesbaden-Auringen,5541,MODES III S,01-Aug-04,50.132020,8.316950,263.0,2,2,,2,,,ISMD36 AMDS,ISID36 AMDS,ISND36 AMDS,ISXD36 AMDS,ISAD36 AMDS,ISHD36 AMDS,ISGD36 AMDS
L829,Raunheim,4090,MODES III N,01-Aug-05,50.005626,8.429069,89.0,2,2,,,,,ISMD86 AMDN,ISID86 AMDN,ISND86 AMDN,ISXD86 AMDN,ISAD86 AMDN,ISHD86 AMDN,ISGD86 AMDN
L841,Frankfurt/Main-Westend,1424,AMDA III / S,23-Jun-08,50.126906,8.669403,124.0,1,,,1,,,ISMD36 AMDS,ISID36 AMDS,ISND36 AMDS,ISXD36 AMDS,ISAD36 AMDS,ISHD36 AMDS,ISGD36 AMDS
L850,Mühlheim/Main,3136,MODES III N,01-Nov-02,50.129438,8.820886,102.0,2,2,,,,,ISMD86 AMDN,ISID86 AMDN,ISND86 AMDN,ISXD86 AMDN,ISAD86 AMDN,ISHD86 AMDN,ISGD86 AMDN
L865,Groß-Gerau-Wallerstädten,1814,AMDA III / N,01-Jun-04,49.905232,8.445949,87.0,1,1,,,,,ISMD86 AMDN,ISID86 AMDN,ISND86 AMDN,ISXD86 AMDN,ISAD86 AMDN,ISHD86 AMDN,ISGD86 AMDN
L886,Darmstadt,917,MODES III S,01-Sep-04,49.880895,8.677906,162.0,3,3,,3,,,ISMD36 AMDS,ISID36 AMDS,ISND36 AMDS,ISXD36 AMDS,ISAD36 AMDS,ISHD36 AMDS,ISGD36 AMDS
L891,Rödermark-Ober-Roden,4230,AMDA III / N,01-Nov-02,49.983205,8.839542,137.0,1,1,,,,,ISMD86 AMDN,ISID86 AMDN,ISND86 AMDN,ISXD86 AMDN,ISAD86 AMDN,ISHD86 AMDN,ISGD86 AMDN
L892,Reinhardshagen-Vaake,4132,AMDA III / N,01-Nov-02,51.484127,9.612059,115.0,1,1,,,,,ISMD86 AMDN,ISID86 AMDN,ISND86 AMDN,ISXD86 AMDN,ISAD86 AMDN,ISHD86 AMDN,ISGD86 AMDN
L894,Schaafheim-Schlierbach,4411,AMDA III / S,01-May-04,49.919516,8.967138,155.0,2,2,,2,2,,ISMD36 AMDS,ISID36 AMDS,ISND36 AMDS,ISXD36 AMDS,ISAD36 AMDS,ISHD36 AMDS,ISGD36 AMDS
L926,Lautertal/Odenwald-Reichenbach,2900,AMDA III / N,01-Dec-07,49.709003,8.690797,208.3,1,1,,,,,ISMD86 AMDN,ISID86 AMDN,ISND86 AMDN,ISXD86 AMDN,ISAD86 AMDN,ISHD86 AMDN,ISGD86 AMDN
L947,Michelstadt,3284,MODES III S,01-May-05,49.669107,9.008549,240.0,2,2,,2,,,ISMD36 AMDS,ISID36 AMDS,ISND36 AMDS,ISXD36 AMDS,ISAD36 AMDS,ISHD36 AMDS,ISGD36 AMDS
L979,Birkenau,14157,MODES III N,01-Dec-09,49.568553,8.701319,168.0,2,2,,,,,ISMD86 AMDN,ISID86 AMDN,ISND86 AMDN,ISXD86 AMDN,ISAD86 AMDN,ISHD86 AMDN,ISGD86 AMDN
L987,Oberzent-Beerfelden-Vogelherd,7391,MODES III W,01-Feb-12,49.556099,8.966935,442.6,,,2,,,,ISMD76 AMDW,ISID76 AMDW,ISND76 AMDW,ISXD76 AMDW,ISAD76 AMDW,ISHD76 AMDW,ISGD76 AMDW
L988,Oberzent-Beerfelden,330,MODES III S,01-Aug-04,49.561729,8.967329,450.0,3,3,,3,,,ISMD36 AMDS,ISID36 AMDS,ISND36 AMDS,ISXD36 AMDS,ISAD36 AMDS,ISHD36 AMDS,ISGD36 AMDS
M031,Ellrich-Werna,5484,MODES III N,01-May-04,51.583452,10.709031,240.0,2,2,,,,,ISMD81 AMDN,ISID81 AMDN,ISND81 AMDN,ISXD81 AMDN,ISAD81 AMDN,ISHD81 AMDN,ISGD81 AMDN
M056,Reinholterode,4135,MODES III N,01-Jun-07,51.424764,10.189764,336.0,2,2,,,,,ISMD81 AMDN,ISID81 AMDN,ISND81 AMDN,ISXD81 AMDN,ISAD81 AMDN,ISHD81 AMDN,ISGD81 AMDN
M146,Helbedündorf-Keula,2562,MODES III N,01-Mar-09,51.333985,10.528996,428.0,2,2,,,,,ISMD81 AMDN,ISID81 AMDN,ISND81 AMDN,ISXD81 AMDN,ISAD81 AMDN,ISHD81 AMDN,ISGD81 AMDN
M225,Mühlhausen/Thüringen-Görmar,6305,MODES III S,01-Dec-04,51.206117,10.497829,193.0,3,3,,3,,,ISMD31 AMDS,ISID31 AMDS,ISND31 AMDS,ISXD31 AMDS,ISAD31 AMDS,ISHD31 AMDS,ISGD31 AMDS
M259,Freienbessingen,3304,MODES III N,01-Apr-07,51.232620,10.769283,296.0,2,2,,,,,ISMD81 AMDN,ISID81 AMDN,ISND81 AMDN,ISXD81 AMDN,ISAD81 AMDN,ISHD81 AMDN,ISGD81 AMDN
M281,Etzleben,1320,AMDA III / N,01-May-04,51.260977,11.175368,137.0,1,1,,,,,ISMD81 AMDN,ISID81 AMDN,ISND81 AMDN,ISXD81 AMDN,ISAD81 AMDN,ISHD81 AMDN,ISGD81 AMDN
M299,Olbersleben,7321,AMDA III / S,01-Sep-05,51.150665,11.332074,160.0,1,1,,1,,,ISMD31 AMDS,ISID31 AMDS,ISND31 AMDS,ISXD31 AMDS,ISAD31 AMDS,ISHD31 AMDS,ISGD31 AMDS
M301,Südeichsfeld-Wendehausen,5084,AMDA III / N,01-Feb-07,51.159397,10.247286,290.0,1,1,,,,,ISMD81 AMDN,ISID81 AMDN,ISND81 AMDN,ISXD81 AMDN,ISAD81 AMDN,ISHD81 AMDN,ISGD81 AMDN
M348,Dachwig,896,AMDA III / S,01-Aug-04,51.077772,10.861875,170.0,1,1,,1,,,ISMD31 AMDS,ISID31 AMDS,ISND31 AMDS,ISXD31 AMDS,ISAD31 AMDS,ISHD31 AMDS,ISGD31 AMDS
M357,Alperstedt,87,MODES III N,01-Feb-05,51.095024,11.047932,158.0,2,2,,,,,ISMD81 AMDN,ISID81 AMDN,ISND81 AMDN,ISXD81 AMDN,ISAD81 AMDN,ISHD81 AMDN,ISGD81 AMDN
M405,Moorgrund Gräfen-Nitzendorf,6272,AMDA III / S,01-Oct-04,50.842611,10.251823,283.0,1,1,,1,,,ISMD31 AMDS,ISID31 AMDS,ISND31 AMDS,ISXD31 AMDS,ISAD31 AMDS,ISHD31 AMDS,ISGD31 AMDS
M412,Hörselberg-Hainich-Behringen,336,AMDA III / N,01-Sep-04,51.022141,10.514781,290.0,1,1,,,,,ISMD81 AMDN,ISID81 AMDN,ISND81 AMDN,ISXD81 AMDN,ISAD81 AMDN,ISHD81 AMDN,ISGD81 AMDN
M439,"Berka, Bad (Flugplatz)",379,MODES III S,01-Sep-17,50.907431,11.266503,303.0,1,1,,1,,,ISMD31 AMDS,ISID31 AMDS,ISND31 AMDS,ISXD31 AMDS,ISAD31 AMDS,ISHD31 AMDS,ISGD31 AMDS
M448,Weimar-Schöndorf,5424,AMDA III / S,01-Jun-07,51.017650,11.354409,328.0,3,3,,3,3,,ISMD31 AMDS,ISID31 AMDS,ISND31 AMDS,ISXD31 AMDS,ISAD31 AMDS,ISHD31 AMDS,ISGD31 AMDS
M473,Crossen/Elster-Nickelsdorf,6271,AMDA III / N,01-Jun-04,50.977058,12.004396,272.0,1,1,,,,,ISMD81 AMDN,ISID81 AMDN,ISND81 AMDN,ISXD81 AMDN,ISAD81 AMDN,ISHD81 AMDN,ISGD81 AMDN
M480,Meuselwitz,3279,AMDA III / N,01-Nov-02,51.045194,12.298860,173.0,1,1,,,,,ISMD81 AMDN,ISID81 AMDN,ISND81 AMDN,ISXD81 AMDN,ISAD81 AMDN,ISHD81 AMDN,ISGD81 AMDN
M488,Starkenberg-Tegkwitz,4997,MODES III S,01-Mar-05,50.977089,12.341939,193.0,2,2,,2,,,ISMD31 AMDS,ISID31 AMDS,ISND31 AMDS,ISXD31 AMDS,ISAD31 AMDS,ISHD31 AMDS,ISGD31 AMDS
M500,Ponitz,7328,MODES III N,01-Jan-06,50.854334,12.421647,219.0,2,2,,,,,ISMD81 AMDN,ISID81 AMDN,ISND81 AMDN,ISXD81 AMDN,ISAD81 AMDN,ISHD81 AMDN,ISGD81 AMDN
M520,Waltershausen,5335,AMDA III / S,01-Aug-06,50.896257,10.548421,348.0,1,1,,1,,,ISMD31 AMDS,ISID31 AMDS,ISND31 AMDS,ISXD31 AMDS,ISAD31 AMDS,ISHD31 AMDS,ISGD31 AMDS
M552,Jena (Sternwarte),2444,MODES III S,01-Aug-04,50.925141,11.582984,155.0,3,3,,3,,3,ISMD31 AMDS,ISID31 AMDS,ISND31 AMDS,ISXD31 AMDS,ISAD31 AMDS,ISHD31 AMDS,ISGD31 AMDS
M557,Bucha,753,AMDA III / N,01-May-04,50.870049,11.502199,310.0,1,,,,,,ISMD81 AMDN,ISID81 AMDN,ISND81 AMDN,ISXD81 AMDN,ISAD81 AMDN,ISHD81 AMDN,ISGD81 AMDN
M565,Bobeck,550,AMDA III / N,01-Nov-02,50.904081,11.798477,344.0,1,1,,,,,ISMD81 AMDN,ISID81 AMDN,ISND81 AMDN,ISXD81 AMDN,ISAD81 AMDN,ISHD81 AMDN,ISGD81 AMDN
M620,Kleiner Inselsberg,2618,AMDA III / S,01-Oct-04,50.845847,10.480262,732.0,1,1,,1,,,ISMD31 AMDS,ISID31 AMDS,ISND31 AMDS,ISXD31 AMDS,ISAD31 AMDS,ISHD31 AMDS,ISGD31 AMDS
M640,Drei Gleichen-Mühlberg,3364,MODES III N,01-Jul-04,50.868082,10.821072,286.0,2,2,,,,,ISMD81 AMDN,ISID81 AMDN,ISND81 AMDN,ISXD81 AMDN,ISAD81 AMDN,ISHD81 AMDN,ISGD81 AMDN
M651,Ilmtal-Dienstedt,962,AMDA III / N,01-May-04,50.801787,11.169196,325.0,1,1,,,,,ISMD81 AMDN,ISID81 AMDN,ISND81 AMDN,ISXD81 AMDN,ISAD81 AMDN,ISHD81 AMDN,ISGD81 AMDN
M669,Uhlstädt-Kirchhasel-Niederkrossen,6268,MODES III N,01-Nov-02,50.757711,11.517819,172.0,2,2,,,,,ISMD81 AMDN,ISID81 AMDN,ISND81 AMDN,ISXD81 AMDN,ISAD81 AMDN,ISHD81 AMDN,ISGD81 AMDN
M691,Harth-Pöllnitz Neundorf,5395,MODES III N,01-Nov-06,50.767557,11.980954,340.0,2,2,,,,,ISMD81 AMDN,ISID81 AMDN,ISND81 AMDN,ISXD81 AMDN,ISAD81 AMDN,ISHD81 AMDN,ISGD81 AMDN
M700,Geisa,1573,MODES III N,01-Jan-06,50.713361,9.953924,280.0,2,2,,,,,ISMD81 AMDN,ISID81 AMDN,ISND81 AMDN,ISXD81 AMDN,ISAD81 AMDN,ISHD81 AMDN,ISGD81 AMDN
M732,Martinroda,3204,MODES III S,01-Jul-08,50.733449,10.881535,427.0,3,3,,3,3,3,ISMD31 AMDS,ISID31 AMDS,ISND31 AMDS,ISXD31 AMDS,ISAD31 AMDS,ISHD31 AMDS,ISGD31 AMDS
M756,Schwarzburg,4605,AMDA III / S,01-Nov-04,50.644023,11.193651,277.0,1,1,,1,,,ISMD31 AMDS,ISID31 AMDS,ISND31 AMDS,ISXD31 AMDS,ISAD31 AMDS,ISHD31 AMDS,ISGD31 AMDS
M765,Krölpa-Rockendorf,13711,MODES III S,01-Dec-07,50.681945,11.515013,289.0,3,3,3,3,3,,ISMD39 AMDS,ISID39 AMDS,ISND39 AMDS,ISXD39 AMDS,ISAD39 AMDS,ISHD39 AMDS,ISGD39 AMDS
M772,Schmieritz-Weltwitz,3289,AMDA III / S,01-Nov-04,50.728112,11.783770,355.0,1,1,,1,,,ISMD31 AMDS,ISID31 AMDS,ISND31 AMDS,ISXD31 AMDS,ISAD31 AMDS,ISHD31 AMDS,ISGD31 AMDS
M799,Langenwetzendorf-Göttendorf,7419,AMDA III / S,01-Dec-06,50.661008,12.075595,389.0,1,1,,1,,,ISMD31 AMDS,ISID31 AMDS,ISND31 AMDS,ISXD31 AMDS,ISAD31 AMDS,ISHD31 AMDS,ISGD31 AMDS
M805,Birx/Rhön,1411,MODES III S,01-Jan-07,50.530884,10.048014,745.0,2,2,,2,,,ISMD31 AMDS,ISID31 AMDS,ISND31 AMDS,ISXD31 AMDS,ISAD31 AMDS,ISHD31 AMDS,ISGD31 AMDS
M833,Frauenwald,1435,MODES III N,01-Nov-02,50.592106,10.857519,768.0,2,2,,,,,ISMD81 AMDN,ISID81 AMDN,ISND81 AMDN,ISXD81 AMDN,ISAD81 AMDN,ISHD81 AMDN,ISGD81 AMDN
M834,Schleusingen,4469,MODES III N,01-Aug-06,50.507059,10.761980,399.0,2,2,,,,,ISMD81 AMDN,ISID81 AMDN,ISND81 AMDN,ISXD81 AMDN,ISAD81 AMDN,ISHD81 AMDN,ISGD81 AMDN
M846,Katzhütte,2541,AMDA III / N,01-Nov-02,50.546736,11.031697,462.0,1,,,,,,ISMD81 AMDN,ISID81 AMDN,ISND81 AMDN,ISXD81 AMDN,ISAD81 AMDN,ISHD81 AMDN,ISGD81 AMDN
M879,Remptendorf,2992,MODES III N,01-Nov-04,50.527594,11.660436,495.0,2,2,,,,,ISMD81 AMDN,ISID81 AMDN,ISND81 AMDN,ISXD81 AMDN,ISAD81 AMDN,ISHD81 AMDN,ISGD81 AMDN
M909,Römhild-Sülzdorf,6270,MODES III N,01-Sep-04,50.409841,10.490162,330.0,2,2,,,,,ISMD81 AMDN,ISID81 AMDN,ISND81 AMDN,ISXD81 AMDN,ISAD81 AMDN,ISHD81 AMDN,ISGD81 AMDN
M927,Veilsdorf,7428,MODES III S,01-May-07,50.416704,10.815633,397.0,2,2,,2,,,ISMD31 AMDS,ISID31 AMDS,ISND31 AMDS,ISXD31 AMDS,ISAD31 AMDS,ISHD31 AMDS,ISGD31 AMDS
M938,Frankenblick-Mengersgereuth-Hämmern,3248,AMDA III / N,01-Apr-07,50.390372,11.132365,508.0,1,1,,,,,ISMD81 AMDN,ISID81 AMDN,ISND81 AMDN,ISXD81 AMDN,ISAD81 AMDN,ISHD81 AMDN,ISGD81 AMDN
M945,Judenbach-Neuenbau,3491,MODES III N,01-Jun-04,50.440967,11.240063,738.0,2,2,,,,,ISMD81 AMDN,ISID81 AMDN,ISND81 AMDN,ISXD81 AMDN,ISAD81 AMDN,ISHD81 AMDN,ISGD81 AMDN
M965,"Lobenstein, Bad",3034,AMDA III / S,01-Jan-07,50.450515,11.634967,500.0,3,3,,3,,,ISMD31 AMDS,ISID31 AMDS,ISND31 AMDS,ISXD31 AMDS,ISAD31 AMDS,ISHD31 AMDS,ISGD31 AMDS
M978,Hirschberg,2233,MODES III N,01-Aug-04,50.404020,11.819321,446.0,2,2,,,,,ISMD81 AMDN,ISID81 AMDN,ISND81 AMDN,ISXD81 AMDN,ISAD81 AMDN,ISHD81 AMDN,ISGD81 AMDN
M998,Neuhaus-Schierschnitz,7421,AMDA III / N,01-Dec-06,50.325031,11.239505,383.0,2,2,,,,,ISMD81 AMDN,ISID81 AMDN,ISND81 AMDN,ISXD81 AMDN,ISAD81 AMDN,ISHD81 AMDN,ISGD81 AMDN
N104,Diesdorf,966,AMDA III / N,01-Feb-06,52.752147,10.883042,65.0,1,1,,,,,ISMD81 AMDN,ISID81 AMDN,ISND81 AMDN,ISXD81 AMDN,ISAD81 AMDN,ISHD81 AMDN,ISGD81 AMDN
N135,Winterfeld-Sallenthin,5614,AMDA III / N,01-Sep-04,52.758220,11.254905,235.0,1,1,,,,,ISMD81 AMDN,ISID81 AMDN,ISND81 AMDN,ISXD81 AMDN,ISAD81 AMDN,ISHD81 AMDN,ISGD81 AMDN
N158,Ballerstedt,7372,AMDA III / N,01-Oct-06,52.732061,11.712362,35.0,1,1,,,,,ISMD81 AMDN,ISID81 AMDN,ISND81 AMDN,ISXD81 AMDN,ISAD81 AMDN,ISHD81 AMDN,ISGD81 AMDN
N182,Schwarzholz,4618,AMDA III / N,01-Nov-04,52.747017,11.979180,30.0,1,1,,,,,ISMD81 AMDN,ISID81 AMDN,ISND81 AMDN,ISXD81 AMDN,ISAD81 AMDN,ISHD81 AMDN,ISGD81 AMDN
N199,Schollene,4555,MODES III N,01-Oct-06,52.662966,12.181243,29.0,2,2,,,,,ISMD81 AMDN,ISID81 AMDN,ISND81 AMDN,ISXD81 AMDN,ISAD81 AMDN,ISHD81 AMDN,ISGD81 AMDN
N214,Köckte,2662,MODES III N,01-Dec-06,52.523275,11.128908,59.0,2,2,,,,,ISMD81 AMDN,ISID81 AMDN,ISND81 AMDN,ISXD81 AMDN,ISAD81 AMDN,ISHD81 AMDN,ISGD81 AMDN
N268,Grieben,1770,MODES III N,01-Oct-06,52.423322,11.965960,38.0,2,2,,,,,ISMD81 AMDN,ISID81 AMDN,ISND81 AMDN,ISXD81 AMDN,ISAD81 AMDN,ISHD81 AMDN,ISGD81 AMDN
N272,Demker,6273,MODES III S,01-Jun-04,52.507485,11.855089,36.0,2,2,,2,,2,ISMD31 AMDS,ISID31 AMDS,ISND31 AMDS,ISXD31 AMDS,ISAD31 AMDS,ISHD31 AMDS,ISGD31 AMDS
N305,Bösdorf,7285,MODES III N,01-Aug-05,52.415269,11.075762,68.0,3,3,,,,,ISMD81 AMDN,ISID81 AMDN,ISND81 AMDN,ISXD81 AMDN,ISAD81 AMDN,ISHD81 AMDN,ISGD81 AMDN
N315,Born,622,MODES III N,01-Jun-06,52.374468,11.465476,66.0,2,2,,,,,ISMD81 AMDN,ISID81 AMDN,ISND81 AMDN,ISXD81 AMDN,ISAD81 AMDN,ISHD81 AMDN,ISGD81 AMDN
N345,Zielitz,874,MODES III N,01-Aug-05,52.299428,11.673310,52.0,3,3,,,,,ISMD81 AMDN,ISID81 AMDN,ISND81 AMDN,ISXD81 AMDN,ISAD81 AMDN,ISHD81 AMDN,ISGD81 AMDN
N366,Burg-Blumenthal,797,MODES III N,01-Aug-05,52.319809,11.833080,39.0,3,3,,,,,ISMD81 AMDN,ISID81 AMDN,ISND81 AMDN,ISXD81 AMDN,ISAD81 AMDN,ISHD81 AMDN,ISGD81 AMDN
N398,Drewitz bei Burg,1052,MODES III S,01-Jul-04,52.217417,12.164088,80.0,2,2,,2,,2,ISMD31 AMDS,ISID31 AMDS,ISND31 AMDS,ISXD31 AMDS,ISAD31 AMDS,ISHD31 AMDS,ISGD31 AMDS
N426,Weißenfels-Wengelsdorf,1847,MODES III N,01-Apr-08,51.274324,12.051727,92.0,3,3,,,,,ISMD81 AMDN,ISID81 AMDN,ISND81 AMDN,ISXD81 AMDN,ISAD81 AMDN,ISHD81 AMDN,ISGD81 AMDN
N435,Bottmersdorf-Klein Germersleben,630,MODES III N,01-Jun-06,52.019434,11.405474,83.0,2,2,,,,,ISMD81 AMDN,ISID81 AMDN,ISND81 AMDN,ISXD81 AMDN,ISAD81 AMDN,ISHD81 AMDN,ISGD81 AMDN
N440,Schackensleben,4412,AMDA III / N,01-Nov-04,52.197954,11.421824,95.0,1,1,,,,,ISMD81 AMDN,ISID81 AMDN,ISND81 AMDN,ISXD81 AMDN,ISAD81 AMDN,ISHD81 AMDN,ISGD81 AMDN
N463,Königsborn,2673,MODES III N,01-Aug-07,52.133024,11.775716,52.0,2,2,,,,,ISMD81 AMDN,ISID81 AMDN,ISND81 AMDN,ISXD81 AMDN,ISAD81 AMDN,ISHD81 AMDN,ISGD81 AMDN
N500,Osterwieck-Rimbeck,775,MODES III N,01-Oct-04,52.000032,10.632293,100.0,2,,,,,,ISMD81 AMDN,ISID81 AMDN,ISND81 AMDN,ISXD81 AMDN,ISAD81 AMDN,ISHD81 AMDN,ISGD81 AMDN
N511,Sargstedt,213,MODES III N,01-May-07,51.937541,10.989739,170.0,2,2,,,,,ISMD81 AMDN,ISID81 AMDN,ISND81 AMDN,ISXD81 AMDN,ISAD81 AMDN,ISHD81 AMDN,ISGD81 AMDN
N520,Huy-Pabstorf,6266,MODES III S,01-Sep-04,52.030421,10.962603,112.0,4,4,,4,,4,ISMD31 AMDS,ISID31 AMDS,ISND31 AMDS,ISXD31 AMDS,ISAD31 AMDS,ISHD31 AMDS,ISGD31 AMDS
N532,Hecklingen-Groß Börnecke,1793,AMDA III / N,01-Aug-06,51.880550,11.464968,104.0,1,1,,,,,ISMD81 AMDN,ISID81 AMDN,ISND81 AMDN,ISXD81 AMDN,ISAD81 AMDN,ISHD81 AMDN,ISGD81 AMDN
N543,Walternienburg-Ronney,287,AMDA III / N,01-May-08,51.961085,11.915881,52.0,2,2,,,,,ISMD81 AMDN,ISID81 AMDN,ISND81 AMDN,ISXD81 AMDN,ISAD81 AMDN,ISHD81 AMDN,ISGD81 AMDN
N548,Bernburg/Saale (Nord),445,AMDA III / S,01-Jul-05,51.821767,11.710944,84.0,1,1,,1,1,1,ISMD31 AMDS,ISID31 AMDS,ISND31 AMDS,ISXD31 AMDS,ISAD31 AMDS,ISHD31 AMDS,ISGD31 AMDS
N553,Badewitz bei Zerbst,7500,AMDA III / N,01-Jan-07,52.022318,12.159693,82.0,2,2,,,,,ISMD81 AMDN,ISID81 AMDN,ISND81 AMDN,ISXD81 AMDN,ISAD81 AMDN,ISHD81 AMDN,ISGD81 AMDN
N563,Düben,1067,AMDA III / N,01-Oct-04,51.926452,12.385627,95.0,1,,,,,,ISMD81 AMDN,ISID81 AMDN,ISND81 AMDN,ISXD81 AMDN,ISAD81 AMDN,ISHD81 AMDN,ISGD81 AMDN
N566,Jeßnitz,7364,MODES III S,01-Jan-07,51.681979,12.304244,74.0,2,2,,2,,,ISMD31 AMDS,ISID31 AMDS,ISND31 AMDS,ISXD31 AMDS,ISAD31 AMDS,ISHD31 AMDS,ISGD31 AMDS
N587,Naundorf bei Seyda,3445,AMDA III / N,01-Nov-04,51.924460,12.888831,100.0,1,1,,,,,ISMD81 AMDN,ISID81 AMDN,ISND81 AMDN,ISXD81 AMDN,ISAD81 AMDN,ISHD81 AMDN,ISGD81 AMDN
N601,Wernigerode-Schierke,4445,MODES III S,01-Sep-04,51.765838,10.653280,609.0,2,2,,2,,,ISMD31 AMDS,ISID31 AMDS,ISND31 AMDS,ISXD31 AMDS,ISAD31 AMDS,ISHD31 AMDS,ISGD31 AMDS
N616,Oberharz am Brocken-Stiege,4878,MODES III S,01-Feb-05,51.664645,10.881071,504.0,2,2,,2,,,ISMD31 AMDS,ISID31 AMDS,ISND31 AMDS,ISXD31 AMDS,ISAD31 AMDS,ISHD31 AMDS,ISGD31 AMDS
N620,Quedlinburg,4032,MODES III S,01-Dec-06,51.795344,11.131995,142.0,5,5,5,5,5,5,ISMD39 AMDS,ISID39 AMDS,ISND39 AMDS,ISXD39 AMDS,ISAD39 AMDS,ISHD39 AMDS,ISGD39 AMDS
N632,Aschersleben-Mehringen,3226,MODES III S,01-Aug-06,51.725946,11.510942,107.0,3,3,,3,,,ISMD31 AMDS,ISID31 AMDS,ISND31 AMDS,ISXD31 AMDS,ISAD31 AMDS,ISHD31 AMDS,ISGD31 AMDS
N652,Köthen (Anhalt),2704,MODES III S,01-May-04,51.751052,12.009371,76.0,2,2,,2,,2,ISMD31 AMDS,ISID31 AMDS,ISND31 AMDS,ISXD31 AMDS,ISAD31 AMDS,ISHD31 AMDS,ISGD31 AMDS
N671,Kemberg-Radis,4052,AMDA III / N,01-Dec-07,51.755573,12.510311,94.0,1,1,,,,,ISMD81 AMDN,ISID81 AMDN,ISND81 AMDN,ISXD81 AMDN,ISAD81 AMDN,ISHD81 AMDN,ISGD81 AMDN
N714,Südharz-Dietersdorf,974,AMDA III / N,01-Sep-06,51.530667,11.045651,440.0,1,1,,,,,ISMD81 AMDN,ISID81 AMDN,ISND81 AMDN,ISXD81 AMDN,ISAD81 AMDN,ISHD81 AMDN,ISGD81 AMDN
N731,Mansfeld-Annarode,5814,AMDA III / N,01-Sep-06,51.550413,11.402970,321.0,1,1,,,,,ISMD81 AMDN,ISID81 AMDN,ISND81 AMDN,ISXD81 AMDN,ISAD81 AMDN,ISHD81 AMDN,ISGD81 AMDN
N748,Querfurt-Mühle Lodersleben,4036,MODES III S,01-Mar-07,51.389498,11.541221,204.0,2,2,2,2,,2,ISMD39 AMDS,ISID39 AMDS,ISND39 AMDS,ISXD39 AMDS,ISAD39 AMDS,ISHD39 AMDS,ISGD39 AMDS
N750,Seegebiet Mansfelder Land-Dederstedt,815,AMDA III / N,01-Nov-06,51.542654,11.694789,154.0,2,2,,,,,ISMD81 AMDN,ISID81 AMDN,ISND81 AMDN,ISXD81 AMDN,ISAD81 AMDN,ISHD81 AMDN,ISGD81 AMDN
N769,"Lauchstädt, Bad",2878,MODES III S,01-Aug-17,51.391016,11.878834,118.0,1,1,1,1,1,1,ISMD31 AMDS,ISID31 AMDS,ISND31 AMDS,ISXD31 AMDS,ISAD31 AMDS,ISHD31 AMDS,ISGD31 AMDS
N815,"Bibra, Bad-Altenroda",124,MODES III N,01-Nov-06,51.238782,11.577004,265.0,2,2,,,,,ISMD81 AMDN,ISID81 AMDN,ISND81 AMDN,ISXD81 AMDN,ISAD81 AMDN,ISHD81 AMDN,ISGD81 AMDN
N855,Freyburg/Unstrut-Zeuchfeld,5763,AMDA III / N,01-Feb-05,51.237986,11.829583,140.0,2,2,,,,,ISMD81 AMDN,ISID81 AMDN,ISND81 AMDN,ISXD81 AMDN,ISAD81 AMDN,ISHD81 AMDN,ISGD81 AMDN
N924,Naumburg/Saale-Kreipitzsch,7420,AMDA III / S,01-Apr-07,51.104390,11.711157,246.0,1,,,1,1,1,ISMD31 AMDS,ISID31 AMDS,ISND31 AMDS,ISXD31 AMDS,ISAD31 AMDS,ISHD31 AMDS,ISGD31 AMDS
N977,Zeitz,5750,MODES III S,01-Mar-06,51.031411,12.149490,264.0,3,3,,3,,,ISMD31 AMDS,ISID31 AMDS,ISND31 AMDS,ISXD31 AMDS,ISAD31 AMDS,ISHD31 AMDS,ISGD31 AMDS
O025,"Muskau, Bad",3426,MODES III S,01-Jun-04,51.566020,14.700855,125.0,3,,,3,3,3,ISMD31 AMDS,ISID31 AMDS,ISND31 AMDS,ISXD31 AMDS,ISAD31 AMDS,ISHD31 AMDS,ISGD31 AMDS
O039,Schönwölkau-Brinnis,721,AMDA III / N,01-Jun-04,51.516799,12.435627,101.0,1,1,,,,,ISMD81 AMDN,ISID81 AMDN,ISND81 AMDN,ISXD81 AMDN,ISAD81 AMDN,ISHD81 AMDN,ISGD81 AMDN
O057,Klitzschen bei Torgau,2641,MODES III S,01-Sep-04,51.518534,12.906500,85.0,2,2,,2,,2,ISMD31 AMDS,ISID31 AMDS,ISND31 AMDS,ISXD31 AMDS,ISAD31 AMDS,ISHD31 AMDS,ISGD31 AMDS
O099,Hähnichen-Trebus,7423,MODES III N,01-Apr-07,51.344342,14.838671,163.0,3,3,,,,,ISMD81 AMDN,ISID81 AMDN,ISND81 AMDN,ISXD81 AMDN,ISAD81 AMDN,ISHD81 AMDN,ISGD81 AMDN
O120,Eilenburg,1166,AMDA III / N,01-Sep-04,51.460108,12.669193,105.0,1,1,,,,,ISMD81 AMDN,ISID81 AMDN,ISND81 AMDN,ISXD81 AMDN,ISAD81 AMDN,ISHD81 AMDN,ISGD81 AMDN
O141,Belgershain,7323,AMDA III / N,01-Jan-06,51.235936,12.551653,150.0,1,1,,,,,ISMD81 AMDN,ISID81 AMDN,ISND81 AMDN,ISXD81 AMDN,ISAD81 AMDN,ISHD81 AMDN,ISGD81 AMDN
O182,Boxberg,633,MODES III N,01-Jun-04,51.404069,14.568153,125.0,3,3,,,,,ISMD81 AMDN,ISID81 AMDN,ISND81 AMDN,ISXD81 AMDN,ISAD81 AMDN,ISHD81 AMDN,ISGD81 AMDN
O204,Markranstädt-Großlehna,1848,AMDA III / N,01-Nov-06,51.309021,12.171771,118.0,1,1,,,,,ISMD81 AMDN,ISID81 AMDN,ISND81 AMDN,ISXD81 AMDN,ISAD81 AMDN,ISHD81 AMDN,ISGD81 AMDN
O248,Heyda bei Riesa,7334,AMDA III / N,01-Mar-06,51.265136,13.358894,132.0,2,2,,,,,ISMD81 AMDN,ISID81 AMDN,ISND81 AMDN,ISXD81 AMDN,ISAD81 AMDN,ISHD81 AMDN,ISGD81 AMDN
O251,Strauch,7335,AMDA III / N,01-Feb-06,51.365756,13.580054,128.0,1,1,,,,,ISMD81 AMDN,ISID81 AMDN,ISND81 AMDN,ISXD81 AMDN,ISAD81 AMDN,ISHD81 AMDN,ISGD81 AMDN
O268,Schönteichen-Cunnersdorf,3094,MODES III N,01-Nov-06,51.312232,14.049895,166.0,2,2,,,,,ISMD81 AMDN,ISID81 AMDN,ISND81 AMDN,ISXD81 AMDN,ISAD81 AMDN,ISHD81 AMDN,ISGD81 AMDN
O305,Pegau,13688,AMDA III / N,01-Mar-08,51.169338,12.261761,128.0,1,1,,,,,ISMD81 AMDN,ISID81 AMDN,ISND81 AMDN,ISXD81 AMDN,ISAD81 AMDN,ISHD81 AMDN,ISGD81 AMDN
O322,Grimma-Kleinbothen,7326,AMDA III / N,01-Jan-06,51.191822,12.764537,134.0,1,1,,,,,ISMD81 AMDN,ISID81 AMDN,ISND81 AMDN,ISXD81 AMDN,ISAD81 AMDN,ISHD81 AMDN,ISGD81 AMDN
O348,Garsebach bei Meißen,3234,MODES III S,01-Feb-05,51.129352,13.432686,157.0,2,2,,2,,,ISMD31 AMDS,ISID31 AMDS,ISND31 AMDS,ISXD31 AMDS,ISAD31 AMDS,ISHD31 AMDS,ISGD31 AMDS
O384,"Kubschütz, Kr. Bautzen",314,MODES III S,01-May-04,51.160355,14.504209,232.0,2,2,,2,,2,ISMD31 AMDS,ISID31 AMDS,ISND31 AMDS,ISXD31 AMDS,ISAD31 AMDS,ISHD31 AMDS,ISGD31 AMDS
O457,Dresden-Strehlen,1051,MODES III S,01-Mar-07,51.024829,13.774985,120.0,2,2,,2,,,ISMD31 AMDS,ISID31 AMDS,ISND31 AMDS,ISXD31 AMDS,ISAD31 AMDS,ISHD31 AMDS,ISGD31 AMDS
O458,Dresden-Hosterwitz,1050,MODES III S,01-Apr-06,51.022075,13.847042,114.0,5,,,5,5,5,ISMD31 AMDS,ISID31 AMDS,ISND31 AMDS,ISXD31 AMDS,ISAD31 AMDS,ISHD31 AMDS,ISGD31 AMDS
O461,Pulsnitz,4023,MODES III N,01-Apr-10,51.200650,14.020697,270.0,2,2,,,,,ISMD81 AMDN,ISID81 AMDN,ISND81 AMDN,ISXD81 AMDN,ISAD81 AMDN,ISHD81 AMDN,ISGD81 AMDN
O484,Sohland/Spree,6129,MODES III S,01-Nov-04,51.059341,14.426610,290.0,2,2,,2,,,ISMD31 AMDS,ISID31 AMDS,ISND31 AMDS,ISXD31 AMDS,ISAD31 AMDS,ISHD31 AMDS,ISGD31 AMDS
O499,Ostritz,2958,MODES III N,01-Oct-04,51.026643,14.935608,213.0,2,2,,,,,ISMD81 AMDN,ISID81 AMDN,ISND81 AMDN,ISXD81 AMDN,ISAD81 AMDN,ISHD81 AMDN,ISGD81 AMDN
O510,Geringswalde-Altgeringswalde,131,MODES III S,01-Nov-04,51.088055,12.932614,296.0,2,2,,2,2,2,ISMD31 AMDS,ISID31 AMDS,ISND31 AMDS,ISXD31 AMDS,ISAD31 AMDS,ISHD31 AMDS,ISGD31 AMDS
O536,Nossen,6314,AMDA III / S,01-Aug-05,51.050689,13.300267,308.0,3,3,3,3,3,3,ISMD39 AMDS,ISID39 AMDS,ISND39 AMDS,ISXD39 AMDS,ISAD39 AMDS,ISHD39 AMDS,ISGD39 AMDS
O538,Freiberg,1441,MODES III N,01-Apr-15,50.926306,13.271085,416.0,2,2,,,,,ISMD81 AMDN,ISID81 AMDN,ISND81 AMDN,ISXD81 AMDN,ISAD81 AMDN,ISHD81 AMDN,ISGD81 AMDN
O543,Wilsdruff-Mohorn,13654,AMDA III / N,01-Aug-07,51.006309,13.471027,288.0,1,1,,,,,ISMD81 AMDN,ISID81 AMDN,ISND81 AMDN,ISXD81 AMDN,ISAD81 AMDN,ISHD81 AMDN,ISGD81 AMDN
O566,Lohmen/Sachsen,3740,MODES III N,01-Apr-08,50.993298,13.980756,195.0,2,2,,,,,ISMD81 AMDN,ISID81 AMDN,ISND81 AMDN,ISXD81 AMDN,ISAD81 AMDN,ISHD81 AMDN,ISGD81 AMDN
O580,Dürrhennersdorf,7337,MODES III N,01-Apr-07,51.057672,14.612812,332.0,3,3,,,,,ISMD81 AMDN,ISID81 AMDN,ISND81 AMDN,ISXD81 AMDN,ISAD81 AMDN,ISHD81 AMDN,ISGD81 AMDN
O598,Bertsdorf-Hörnitz,2252,MODES III S,01-Jul-05,50.899046,14.745653,270.0,3,3,3,3,3,3,ISMD39 AMDS,ISID39 AMDS,ISND39 AMDS,ISXD39 AMDS,ISAD39 AMDS,ISHD39 AMDS,ISGD39 AMDS
O625,Frankenberg-Altenhain,7327,AMDA III / N,01-May-07,50.883643,13.042472,326.0,3,3,,,,,ISMD81 AMDN,ISID81 AMDN,ISND81 AMDN,ISXD81 AMDN,ISAD81 AMDN,ISHD81 AMDN,ISGD81 AMDN
O660,Dippoldiswalde-Reinberg,991,MODES III S,01-Feb-05,50.911655,13.708701,365.0,2,2,,2,,,ISMD31 AMDS,ISID31 AMDS,ISND31 AMDS,ISXD31 AMDS,ISAD31 AMDS,ISHD31 AMDS,ISGD31 AMDS
O708,Crimmitschau-Mannichswalde,13774,AMDA III / N,01-Jun-08,50.813762,12.298534,327.0,1,1,,,,,ISMD81 AMDN,ISID81 AMDN,ISND81 AMDN,ISXD81 AMDN,ISAD81 AMDN,ISHD81 AMDN,ISGD81 AMDN
O725,Sankt Egidien-Kuhschnappel,7418,AMDA III / N,01-Jun-08,50.801951,12.636583,321.0,2,2,,,,,ISMD81 AMDN,ISID81 AMDN,ISND81 AMDN,ISXD81 AMDN,ISAD81 AMDN,ISHD81 AMDN,ISGD81 AMDN
O795,Rosenthal-Bielatal,5943,MODES III N,01-Jan-07,50.837726,14.071892,460.0,4,4,,,,,ISMD81 AMDN,ISID81 AMDN,ISND81 AMDN,ISXD81 AMDN,ISAD81 AMDN,ISHD81 AMDN,ISGD81 AMDN
O805,Lichtentanne,5797,MODES III S,01-Dec-05,50.687847,12.432932,353.0,2,2,2,2,,,ISMD39 AMDS,ISID39 AMDS,ISND39 AMDS,ISXD39 AMDS,ISAD39 AMDS,ISHD39 AMDS,ISGD39 AMDS
O842,Deutschneudorf-Brüderwiese,7343,MODES III S,01-Apr-06,50.619911,13.481591,688.0,2,2,,2,,,ISMD31 AMDS,ISID31 AMDS,ISND31 AMDS,ISXD31 AMDS,ISAD31 AMDS,ISHD31 AMDS,ISGD31 AMDS
O846,Marienberg-Rübenau,7333,MODES III N,01-Jul-06,50.580336,13.296622,727.0,3,3,,,,,ISMD81 AMDN,ISID81 AMDN,ISND81 AMDN,ISXD81 AMDN,ISAD81 AMDN,ISHD81 AMDN,ISGD81 AMDN
O863,Aue,222,MODES III S,01-Jul-08,50.590707,12.714005,387.0,2,2,,2,,2,ISMD31 AMDS,ISID31 AMDS,ISND31 AMDS,ISXD31 AMDS,ISAD31 AMDS,ISHD31 AMDS,ISGD31 AMDS
O868,Treuen,7329,AMDA III / S,01-Nov-05,50.546700,12.286300,465.0,1,1,,1,1,1,ISMD31 AMDS,ISID31 AMDS,ISND31 AMDS,ISXD31 AMDS,ISAD31 AMDS,ISHD31 AMDS,ISGD31 AMDS
O877,Stützengrün-Hundshübel,2372,AMDA III / N,01-May-07,50.546611,12.570627,604.0,3,3,,,,,ISMD81 AMDN,ISID81 AMDN,ISND81 AMDN,ISXD81 AMDN,ISAD81 AMDN,ISHD81 AMDN,ISGD81 AMDN
O882,Tannenberg,4982,AMDA III / N,01-Nov-04,50.607392,12.938954,532.0,1,1,,,,,ISMD81 AMDN,ISID81 AMDN,ISND81 AMDN,ISXD81 AMDN,ISAD81 AMDN,ISHD81 AMDN,ISGD81 AMDN
O888,Raschau,3175,AMDA III / N,01-Nov-06,50.521942,12.828233,504.0,1,1,,,,,ISMD81 AMDN,ISID81 AMDN,ISND81 AMDN,ISXD81 AMDN,ISAD81 AMDN,ISHD81 AMDN,ISGD81 AMDN
O950,Weischlitz-Heinersgrün,551,AMDA III / N,01-Nov-06,50.388691,11.995528,517.0,1,1,,,,,ISMD81 AMDN,ISID81 AMDN,ISND81 AMDN,ISXD81 AMDN,ISAD81 AMDN,ISHD81 AMDN,ISGD81 AMDN
O974,Klingenthal-Kamerun,6269,AMDA III / N,01-Apr-07,50.359399,12.483656,730.0,1,,,,,,ISMD81 AMDN,ISID81 AMDN,ISND81 AMDN,ISXD81 AMDN,ISAD81 AMDN,ISHD81 AMDN,ISGD81 AMDN
O980,"Elster, Bad-Sohl",1207,AMDA III / S,01-Mar-06,50.270460,12.274185,560.0,1,1,,1,,,ISMD31 AMDS,ISID31 AMDS,ISND31 AMDS,ISXD31 AMDS,ISAD31 AMDS,ISHD31 AMDS,ISGD31 AMDS
O993,Erlbach-Eubabrunn,1282,AMDA III / N,01-Jan-10,50.304233,12.383411,565.0,1,1,,,,,ISMD81 AMDN,ISID81 AMDN,ISND81 AMDN,ISXD81 AMDN,ISAD81 AMDN,ISHD81 AMDN,ISGD81 AMDN
P004,Oberleichtersbach-Modlos,3700,AMDA III / N,01-Nov-05,50.266152,9.772774,470.0,1,1,,,,,ISMD89 AMDN,ISID89 AMDN,ISND89 AMDN,ISXD89 AMDN,ISAD89 AMDN,ISHD89 AMDN,ISGD89 AMDN
P013,Sandberg,4377,AMDA III / S,01-Sep-05,50.351741,10.003394,510.0,1,1,,1,,,ISMD38 AMDS,ISID38 AMDS,ISND38 AMDS,ISXD38 AMDS,ISAD38 AMDS,ISHD38 AMDS,ISGD38 AMDS
P022,Ostheim v.d. Rhön,3836,MODES III S,01-Mar-06,50.453828,10.221064,312.0,2,2,,2,,,ISMD38 AMDS,ISID38 AMDS,ISND38 AMDS,ISXD38 AMDS,ISAD38 AMDS,ISHD38 AMDS,ISGD38 AMDS
P029,Maßbach,3207,AMDA III / N,01-Dec-04,50.179741,10.271985,326.0,1,1,,,,,ISMD89 AMDN,ISID89 AMDN,ISND89 AMDN,ISXD89 AMDN,ISAD89 AMDN,ISHD89 AMDN,ISGD89 AMDN
P032,Aubstadt,7392,AMDA III / W,01-Jan-08,50.333221,10.448744,304.0,,,2,,,,ISMD78 AMDW,ISID78 AMDW,ISND78 AMDW,ISXD78 AMDW,ISAD78 AMDW,ISHD78 AMDW,ISGD78 AMDW
P033,"Königshofen, Bad",2680,AMDA III / S,01-Jun-05,50.284000,10.445600,288.0,1,1,,1,,,ISMD38 AMDS,ISID38 AMDS,ISND38 AMDS,ISXD38 AMDS,ISAD38 AMDS,ISHD38 AMDS,ISGD38 AMDS
P038,Sulzdorf an der Lederhecke,4958,MODES III N,01-Mar-05,50.241932,10.567027,332.0,2,2,,,,,ISMD89 AMDN,ISID89 AMDN,ISND89 AMDN,ISXD89 AMDN,ISAD89 AMDN,ISHD89 AMDN,ISGD89 AMDN
P058,Itzgrund-Herreth,2431,MODES III N,01-Oct-04,50.133847,10.931775,367.0,4,4,,,,,ISMD89 AMDN,ISID89 AMDN,ISND89 AMDN,ISXD89 AMDN,ISAD89 AMDN,ISHD89 AMDN,ISGD89 AMDN
P062,Ludwigsstadt-Lauenstein,3080,MODES III N,01-Oct-04,50.513088,11.366453,520.0,2,2,,,,,ISMD89 AMDN,ISID89 AMDN,ISND89 AMDN,ISXD89 AMDN,ISAD89 AMDN,ISHD89 AMDN,ISGD89 AMDN
P066,Kronach,2750,AMDA III / S,01-Nov-05,50.252336,11.320930,312.0,1,1,,1,1,1,ISMD38 AMDS,ISID38 AMDS,ISND38 AMDS,ISXD38 AMDS,ISAD38 AMDS,ISHD38 AMDS,ISGD38 AMDS
P068,Burgkunstadt,812,MODES III N,01-Dec-04,50.142748,11.232231,276.0,2,2,,,,,ISMD89 AMDN,ISID89 AMDN,ISND89 AMDN,ISXD89 AMDN,ISAD89 AMDN,ISHD89 AMDN,ISGD89 AMDN
P071,Teuschnitz,5017,AMDA III / S,01-Nov-05,50.400219,11.388904,633.0,2,2,,2,,,ISMD38 AMDS,ISID38 AMDS,ISND38 AMDS,ISXD38 AMDS,ISAD38 AMDS,ISHD38 AMDS,ISGD38 AMDS
P073,"Steben, Bad",6338,AMDA III / N,01-Mar-05,50.361766,11.622293,608.0,1,1,,,,,ISMD89 AMDN,ISID89 AMDN,ISND89 AMDN,ISXD89 AMDN,ISAD89 AMDN,ISHD89 AMDN,ISGD89 AMDN
P079,Ludwigschorgast,3497,AMDA III / N,01-Oct-04,50.122752,11.559683,336.0,1,1,,,,,ISMD89 AMDN,ISID89 AMDN,ISND89 AMDN,ISXD89 AMDN,ISAD89 AMDN,ISHD89 AMDN,ISGD89 AMDN
P088,Stammbach-Querenbach,4818,AMDA III / N,01-Oct-04,50.153050,11.740256,598.0,1,1,,,,,ISMD89 AMDN,ISID89 AMDN,ISND89 AMDN,ISXD89 AMDN,ISAD89 AMDN,ISHD89 AMDN,ISGD89 AMDN
P095,Rehau,4109,AMDA III / N,01-Oct-04,50.221378,12.027560,587.0,1,1,,,,,ISMD89 AMDN,ISID89 AMDN,ISND89 AMDN,ISXD89 AMDN,ISAD89 AMDN,ISHD89 AMDN,ISGD89 AMDN
P098,Selb/Oberfranken-Lauterbach,4548,AMDA III / S,01-Jul-07,50.204647,12.143496,609.0,1,1,,1,,,ISMD38 AMDS,ISID38 AMDS,ISND38 AMDS,ISXD38 AMDS,ISAD38 AMDS,ISHD38 AMDS,ISGD38 AMDS
P099,Selb-Spielberg,6196,AMDA III / W,01-Jun-11,50.158666,12.038640,610.0,,,1,,,,ISMD78 AMDW,ISID78 AMDW,ISND78 AMDW,ISXD78 AMDW,ISAD78 AMDW,ISHD78 AMDW,ISGD78 AMDW
P100,Kahl/Main,2480,MODES III S,01-Sep-04,50.064313,8.993000,107.0,3,3,,3,,,ISMD38 AMDS,ISID38 AMDS,ISND38 AMDS,ISXD38 AMDS,ISAD38 AMDS,ISHD38 AMDS,ISGD38 AMDS
P104,Heinrichsthal,2109,AMDA III / N,01-Oct-04,50.066441,9.345831,450.0,1,1,,,,,ISMD89 AMDN,ISID89 AMDN,ISND89 AMDN,ISXD89 AMDN,ISAD89 AMDN,ISHD89 AMDN,ISGD89 AMDN
P113,Lohr/Main-Halsbach,6336,AMDA III / S,01-Nov-05,50.013182,9.654003,285.0,1,1,,1,,1,ISMD38 AMDS,ISID38 AMDS,ISND38 AMDS,ISXD38 AMDS,ISAD38 AMDS,ISHD38 AMDS,ISGD38 AMDS
P125,Arnstein-Müdesheim,191,AMDA III / S,01-Mar-05,49.969460,9.911327,220.0,1,1,,1,,,ISMD38 AMDS,ISID38 AMDS,ISND38 AMDS,ISXD38 AMDS,ISAD38 AMDS,ISHD38 AMDS,ISGD38 AMDS
P131,Schonungen-Mainberg,6347,AMDA III / S,01-Mar-05,50.057935,10.297177,304.0,1,1,,1,1,,ISMD38 AMDS,ISID38 AMDS,ISND38 AMDS,ISXD38 AMDS,ISAD38 AMDS,ISHD38 AMDS,ISGD38 AMDS
P137,Kolitzheim,2709,MODES III N,01-Nov-04,49.916393,10.236281,230.0,2,2,,,,,ISMD89 AMDN,ISID89 AMDN,ISND89 AMDN,ISXD89 AMDN,ISAD89 AMDN,ISHD89 AMDN,ISGD89 AMDN
P138,Prosselsheim-Seligenstadt,4016,AMDA III / N,01-Mar-05,49.852643,10.100557,284.0,2,2,,,,,ISMD89 AMDN,ISID89 AMDN,ISND89 AMDN,ISXD89 AMDN,ISAD89 AMDN,ISHD89 AMDN,ISGD89 AMDN
P141,Königsberg/Bayern-Holzhausen,6200,MODES III N,01-Oct-04,50.078551,10.488741,259.0,2,2,,,,,ISMD89 AMDN,ISID89 AMDN,ISND89 AMDN,ISXD89 AMDN,ISAD89 AMDN,ISHD89 AMDN,ISGD89 AMDN
P148,Ebrach,1107,AMDA III / S,01-Dec-04,49.851977,10.499043,346.0,1,1,,1,,1,ISMD38 AMDS,ISID38 AMDS,ISND38 AMDS,ISXD38 AMDS,ISAD38 AMDS,ISHD38 AMDS,ISGD38 AMDS
P151,Rentweinsdorf-Treinfeld,7430,MODES III N,01-Nov-07,50.061354,10.812894,258.0,2,2,,,,,ISMD89 AMDN,ISID89 AMDN,ISND89 AMDN,ISXD89 AMDN,ISAD89 AMDN,ISHD89 AMDN,ISGD89 AMDN
P158,Scheßlitz-Köttensdorf,6195,MODES III N,01-Oct-04,49.956068,11.018965,304.0,3,3,,,,,ISMD89 AMDN,ISID89 AMDN,ISND89 AMDN,ISXD89 AMDN,ISAD89 AMDN,ISHD89 AMDN,ISGD89 AMDN
P164,Thurnau-Tannfeld,5034,AMDA III / N,01-Mar-06,49.984158,11.400773,513.0,1,1,,,,,ISMD89 AMDN,ISID89 AMDN,ISND89 AMDN,ISXD89 AMDN,ISAD89 AMDN,ISHD89 AMDN,ISGD89 AMDN
P168,Aufseß-Hochstahl,227,MODES III N,01-Oct-04,49.882331,11.265587,432.0,2,2,,,,,ISMD89 AMDN,ISID89 AMDN,ISND89 AMDN,ISXD89 AMDN,ISAD89 AMDN,ISHD89 AMDN,ISGD89 AMDN
P175,Heinersreuth-Vollhof,320,MODES III S,01-Jul-06,49.966670,11.519692,350.0,4,4,,4,4,4,ISMD38 AMDS,ISID38 AMDS,ISND38 AMDS,ISXD38 AMDS,ISAD38 AMDS,ISHD38 AMDS,ISGD38 AMDS
P179,Creußen-Bühl,885,MODES III N,01-Jun-05,49.844865,11.616049,450.0,2,2,,,,,ISMD89 AMDN,ISID89 AMDN,ISND89 AMDN,ISXD89 AMDN,ISAD89 AMDN,ISHD89 AMDN,ISGD89 AMDN
P182,Fichtelberg/Oberfranken-Hüttstadl,1357,MODES III S,01-Mar-05,49.980690,11.837637,654.0,3,3,3,3,,,ISMD39 AMDS,ISID39 AMDS,ISND39 AMDS,ISXD39 AMDS,ISAD39 AMDS,ISHD39 AMDS,ISGD39 AMDS
P185,Waldershof-Schafbruck,5303,AMDA III / N,01-Sep-04,49.935989,12.093479,723.0,1,1,,,,,ISMD89 AMDN,ISID89 AMDN,ISND89 AMDN,ISXD89 AMDN,ISAD89 AMDN,ISHD89 AMDN,ISGD89 AMDN
P188,Kemnath,2556,AMDA III / N,01-Nov-04,49.867184,11.881041,460.0,1,1,,,,,ISMD89 AMDN,ISID89 AMDN,ISND89 AMDN,ISXD89 AMDN,ISAD89 AMDN,ISHD89 AMDN,ISGD89 AMDN
P189,Pressath-Mühlberg,3999,AMDA III / N,01-Nov-04,49.784494,12.032920,595.0,1,1,,,,,ISMD89 AMDN,ISID89 AMDN,ISND89 AMDN,ISXD89 AMDN,ISAD89 AMDN,ISHD89 AMDN,ISGD89 AMDN
P190,Hohenberg/Eger,2274,AMDA III / N,01-Nov-04,50.091960,12.213188,517.0,1,1,,,,,ISMD89 AMDN,ISID89 AMDN,ISND89 AMDN,ISXD89 AMDN,ISAD89 AMDN,ISHD89 AMDN,ISGD89 AMDN
P197,Mähring,3121,AMDA III / N,01-Sep-04,49.911383,12.527646,676.0,1,1,,,,,ISMD89 AMDN,ISID89 AMDN,ISND89 AMDN,ISXD89 AMDN,ISAD89 AMDN,ISHD89 AMDN,ISGD89 AMDN
P198,Tirschenreuth-Lodermühl,5046,AMDA III / S,01-Mar-08,49.857622,12.354196,500.0,1,1,,1,,,ISMD38 AMDS,ISID38 AMDS,ISND38 AMDS,ISXD38 AMDS,ISAD38 AMDS,ISHD38 AMDS,ISGD38 AMDS
P222,Altertheim-Oberaltertheim,130,MODES III N,01-Dec-04,49.728287,9.769150,300.0,3,3,,,,,ISMD89 AMDN,ISID89 AMDN,ISND89 AMDN,ISXD89 AMDN,ISAD89 AMDN,ISHD89 AMDN,ISGD89 AMDN
P228,Bütthard,789,MODES III N,01-Jun-04,49.606402,9.883535,263.0,2,2,,,,,ISMD89 AMDN,ISID89 AMDN,ISND89 AMDN,ISXD89 AMDN,ISAD89 AMDN,ISHD89 AMDN,ISGD89 AMDN
P232,Kitzingen,2600,AMDA III / S,01-Mar-05,49.736304,10.178117,188.0,2,2,,2,,,ISMD38 AMDS,ISID38 AMDS,ISND38 AMDS,ISXD38 AMDS,ISAD38 AMDS,ISHD38 AMDS,ISGD38 AMDS
P236,Markt Bibart,3179,AMDA III / N,01-Aug-04,49.665970,10.385085,317.0,1,1,,,,,ISMD89 AMDN,ISID89 AMDN,ISND89 AMDN,ISXD89 AMDN,ISAD89 AMDN,ISHD89 AMDN,ISGD89 AMDN
P237,Ergersheim-Neuherberg,15122,AMDA III / W,01-Apr-12,49.520012,10.285397,379.7,,,1,,,,ISMD78 AMDW,ISID78 AMDW,ISND78 AMDW,ISXD78 AMDW,ISAD78 AMDW,ISHD78 AMDW,ISGD78 AMDW
P238,Gollhofen,5149,AMDA III / S,01-Jan-05,49.574050,10.191588,308.0,1,1,,1,,,ISMD38 AMDS,ISID38 AMDS,ISND38 AMDS,ISXD38 AMDS,ISAD38 AMDS,ISHD38 AMDS,ISGD38 AMDS
P257,Möhrendorf-Kleinseebach,1279,AMDA III / S,01-Jul-06,49.649744,11.007445,268.0,1,1,,1,1,,ISMD38 AMDS,ISID38 AMDS,ISND38 AMDS,ISXD38 AMDS,ISAD38 AMDS,ISHD38 AMDS,ISGD38 AMDS
P262,Gößweinstein,1689,MODES III N,01-Jul-04,49.765591,11.306126,443.0,2,,,,,,ISMD89 AMDN,ISID89 AMDN,ISND89 AMDN,ISXD89 AMDN,ISAD89 AMDN,ISHD89 AMDN,ISGD89 AMDN
P265,Gräfenberg-Kasberg,1721,AMDA III / S,01-Oct-06,49.663990,11.223886,506.0,1,1,,1,,,ISMD38 AMDS,ISID38 AMDS,ISND38 AMDS,ISXD38 AMDS,ISAD38 AMDS,ISHD38 AMDS,ISGD38 AMDS
P270,Plech,3948,MODES III N,01-Sep-04,49.648959,11.468565,443.0,3,3,,,,,ISMD89 AMDN,ISID89 AMDN,ISND89 AMDN,ISXD89 AMDN,ISAD89 AMDN,ISHD89 AMDN,ISGD89 AMDN
P280,Neustadt am Kulm-Filchendorf,3571,AMDA III / S,01-Mar-08,49.817385,11.863809,452.0,2,2,,2,2,2,ISMD38 AMDS,ISID38 AMDS,ISND38 AMDS,ISXD38 AMDS,ISAD38 AMDS,ISHD38 AMDS,ISGD38 AMDS
P287,Freihung-Großschönbrunn,1458,AMDA III / N,01-Apr-05,49.574717,11.886045,493.0,1,1,,,,,ISMD89 AMDN,ISID89 AMDN,ISND89 AMDN,ISXD89 AMDN,ISAD89 AMDN,ISHD89 AMDN,ISGD89 AMDN
P294,Flossenbürg,1392,AMDA III / N,01-Apr-10,49.731702,12.349075,622.0,1,,,,,,ISMD89 AMDN,ISID89 AMDN,ISND89 AMDN,ISXD89 AMDN,ISAD89 AMDN,ISHD89 AMDN,ISGD89 AMDN
P298,Waidhaus-Pfrentsch,5285,AMDA III / N,01-Nov-04,49.618041,12.489524,499.0,1,1,,,,,ISMD89 AMDN,ISID89 AMDN,ISND89 AMDN,ISXD89 AMDN,ISAD89 AMDN,ISHD89 AMDN,ISGD89 AMDN
P299,Schönsee-Dietersdorf,4546,AMDA III / N,01-Nov-04,49.527228,12.570347,685.0,1,1,,,,,ISMD89 AMDN,ISID89 AMDN,ISND89 AMDN,ISXD89 AMDN,ISAD89 AMDN,ISHD89 AMDN,ISGD89 AMDN
P300,Simmershofen-Adelhofen,6201,MODES III N,01-Dec-04,49.533611,10.154897,337.0,2,2,,,,,ISMD89 AMDN,ISID89 AMDN,ISND89 AMDN,ISXD89 AMDN,ISAD89 AMDN,ISHD89 AMDN,ISGD89 AMDN
P305,Rothenburg ob der Tauber,4287,MODES III S,01-Jan-05,49.384842,10.173229,415.0,2,2,,2,,,ISMD38 AMDS,ISID38 AMDS,ISND38 AMDS,ISXD38 AMDS,ISAD38 AMDS,ISHD38 AMDS,ISGD38 AMDS
P308,Neuburg/Kammel-Langenhaslach,3485,AMDA III / S,01-May-05,48.311450,10.377302,486.0,1,1,,1,,1,ISMD38 AMDS,ISID38 AMDS,ISND38 AMDS,ISXD38 AMDS,ISAD38 AMDS,ISHD38 AMDS,ISGD38 AMDS
P315,Dietenhofen,970,AMDA III / N,01-Nov-02,49.415840,10.673442,405.0,1,1,,,,,ISMD89 AMDN,ISID89 AMDN,ISND89 AMDN,ISXD89 AMDN,ISAD89 AMDN,ISHD89 AMDN,ISGD89 AMDN
